Name,Rating,City,Latitude,Longitude,Opening Hours
Le Comptoir de la Gastronomie,4.5,Paris,48.86455280000001,2.345431,"Monday: 9:00AM - 7:00PM, Tuesday: 9:00AM - 10:30PM, Wednesday: 9:00AM - 10:30PM, Thursday: 9:00AM - 10:30PM, Friday: 9:00AM - 10:30PM, Saturday: 9:00AM - 10:30PM, Sunday: Closed"
Bistro des Augustins,4.4,Paris,48.8546972,2.3420468,"Monday: 11:30AM - 1:00AM, Tuesday: 11:30AM - 1:00AM, Wednesday: 11:30AM - 1:00AM, Thursday: 11:30AM - 1:00AM, Friday: 11:30AM - 1:00AM, Saturday: 11:30AM - 1:00AM, Sunday: 11:30AM - 1:00AM"
Brasserie Bellanger,4.9,Paris,48.8809206,2.3500288,"Monday: 9:00AM - 12:00AM, Tuesday: 9:00AM - 12:00AM, Wednesday: 9:00AM - 12:00AM, Thursday: 9:00AM - 12:00AM, Friday: 9:00AM - 12:30AM, Saturday: 9:00AM - 12:30AM, Sunday: 9:00AM - 12:00AM"
Les Antiquaires,4.4,Paris,48.8586582,2.3288088,"Monday: 7:00AM - 2:00AM, Tuesday: 7:00AM - 2:00AM, Wednesday: 7:00AM - 2:00AM, Thursday: 7:00AM - 2:00AM, Friday: 7:00AM - 2:00AM, Saturday: 7:00AM - 2:00AM, Sunday: 7:00AM - 2:00AM"
Angelina,4.0,Paris,-33.8211769,18.5100471,"Monday: 9:30AM - 4:30PM, Tuesday: 9:30AM - 4:30AM, Wednesday: 9:30AM - 4:00AM, Thursday: 9:30AM - 4:30PM, Friday: 9:30AM - 4:30PM, Saturday: Closed, Sunday: Closed"
La Fontaine de Mars,4.3,Paris,48.8583982,2.3025519,"Monday: 12:00 - 3:00PM, 7:15 - 11:00PM, Tuesday: 12:00 - 3:00PM, 7:30 - 11:00PM, Wednesday: 12:00 - 3:00PM, 7:30 - 11:00PM, Thursday: 12:00 - 3:00PM, 7:30 - 11:00PM, Friday: 12:00 - 3:00PM, 7:15 - 11:00PM, Saturday: 12:00 - 3:00PM, 7:15 - 11:00PM, Sunday: 12:00 - 3:00PM, 7:15 - 11:00PM"
Baguett’s Café,4.5,Paris,48.8652825,2.336524599999999,"Monday: 8:30AM - 4:00PM, Tuesday: 8:30AM - 4:00PM, Wednesday: 8:30AM - 4:00PM, Thursday: 8:30AM - 4:00PM, Friday: 8:30AM - 4:00PM, Saturday: 9:00AM - 6:00PM, Sunday: 9:00AM - 6:00PM"
L’As du Fallafel,4.3,Paris,48.85740670000001,2.3591962,"Monday: 11:00AM - 11:00PM, Tuesday: 11:00AM - 11:00PM, Wednesday: 11:00AM - 11:00PM, Thursday: 11:00AM - 11:00PM, Friday: 11:00AM - 3:00PM, Saturday: Closed, Sunday: Closed"
Sanukiya,4.5,Paris,48.864718,2.333787,"Monday: 11:30AM - 10:00PM, Tuesday: 11:30AM - 10:00PM, Wednesday: 11:30AM - 10:00PM, Thursday: 11:30AM - 10:00PM, Friday: 11:30AM - 10:00PM, Saturday: 11:30AM - 10:00PM, Sunday: 11:30AM - 10:00PM"
Café Blanc,4.4,Paris,-33.881802,18.4875065,"Monday: 7:00AM - 11:00PM, Tuesday: 7:00AM - 11:00PM, Wednesday: 7:00AM - 11:00PM, Thursday: 7:00AM - 11:00PM, Friday: 7:00AM - 12:00AM, Saturday: 7:00AM - 12:00AM, Sunday: 7:00AM - 11:00PM"
La Jacobine,4.5,Paris,48.8533819,2.3389252,"Monday: Closed, Tuesday: 12:00 - 10:30PM, Wednesday: 12:00 - 10:30PM, Thursday: 12:00 - 10:30PM, Friday: 12:00 - 10:30PM, Saturday: 12:00 - 10:30PM, Sunday: 12:00 - 10:30PM"
Victoires,4.0,Paris,48.8657135,2.341196499999999,
Café de Paris,3.9,Paris,48.853945,2.337614000000001,"Monday: 8:00AM - 2:00AM, Tuesday: 8:00AM - 2:00AM, Wednesday: 8:00AM - 2:00AM, Thursday: 8:00AM - 2:00AM, Friday: 8:00AM - 2:00AM, Saturday: 8:00AM - 2:00AM, Sunday: 8:00AM - 2:00AM"
Au Petit Village,4.9,Paris,48.8332802,2.356205000000001,"Monday: 9:00AM - 3:30PM, 6:00 - 11:00PM, Tuesday: 9:00AM - 3:30PM, 6:00 - 11:00PM, Wednesday: 9:00AM - 3:30PM, 6:00 - 11:00PM, Thursday: 9:00AM - 3:30PM, 6:00 - 11:00PM, Friday: 9:00AM - 3:30PM, 6:00 - 11:00PM, Saturday: 9:00AM - 3:30PM, 6:00 - 11:00PM, Sunday: Closed"
Le Corner Saint Germain,4.6,Paris,48.8512902,2.344367999999999,"Monday: 9:00AM - 12:00AM, Tuesday: 9:00AM - 12:00AM, Wednesday: 9:00AM - 12:00AM, Thursday: 9:00AM - 12:00AM, Friday: 9:00AM - 12:00AM, Saturday: 9:00AM - 12:00AM, Sunday: 9:00AM - 12:00AM"
Le Bistrot des Vosges,4.3,Paris,48.8557294,2.3682196,"Monday: 12:00 - 10:00PM, Tuesday: 12:00 - 10:00PM, Wednesday: 12:00 - 10:00PM, Thursday: 12:00 - 10:00PM, Friday: 12:00 - 10:00PM, Saturday: 12:00 - 10:00PM, Sunday: 12:00 - 10:00PM"
L’Escargot,3.8,Paris,51.5139706,-0.1309972,"Monday: Closed, Tuesday: 12:00 - 3:00PM, 5:00 - 10:30PM, Wednesday: 12:00 - 3:00PM, 5:00 - 10:30PM, Thursday: 12:00 - 3:00PM, 5:00 - 10:30PM, Friday: 12:00 - 3:00PM, 5:00 - 10:30PM, Saturday: 12:00 - 3:00PM, 5:00 - 10:30PM, Sunday: 12:00 - 4:00PM"
Le Pas Sage,4.3,Paris,-34.92349920000001,138.6064599,"Monday: 8:00AM - 12:00AM, Tuesday: 8:00AM - 12:00AM, Wednesday: 8:00AM - 12:00AM, Thursday: 8:00AM - 12:00AM, Friday: 8:00AM - 12:00AM, Saturday: 9:00AM - 12:00AM, Sunday: Closed"
La Coïncidence,4.5,Paris,,,N/A
Les Artizans,4.7,Paris,48.86376859999999,2.3465503,"Monday: 12:00 - 10:30PM, Tuesday: 12:00 - 10:30PM, Wednesday: 12:00 - 10:30PM, Thursday: 12:00 - 10:30PM, Friday: 12:00 - 10:30PM, Saturday: 11:30AM - 10:30PM, Sunday: 11:30AM - 10:30PM"
La Cordonnerie,4.7,Paris,48.8652332,2.3505363,"Monday: 4:00PM - 2:00AM, Tuesday: 4:00PM - 2:00AM, Wednesday: 4:00PM - 2:00AM, Thursday: 4:00PM - 2:00AM, Friday: 4:00PM - 2:00AM, Saturday: 4:00PM - 2:00AM, Sunday: 4:00PM - 2:00AM"
Sacré Frenchy !,4.7,Paris,48.8632396,2.3511546,"Monday: Closed, Tuesday: 11:30AM - 2:00AM, Wednesday: 11:30AM - 2:00AM, Thursday: 11:30AM - 2:00AM, Friday: 11:30AM - 2:00AM, Saturday: 10:00AM - 2:00AM, Sunday: 11:45AM - 10:30PM"
Grenouilles,4.8,Paris,48.8870559,2.3417822,"Monday: 9:30AM - 10:00PM, Tuesday: 9:30AM - 10:00PM, Wednesday: 9:30AM - 10:00PM, Thursday: 9:30AM - 10:00PM, Friday: 9:30AM - 11:00PM, Saturday: 9:00AM - 11:00PM, Sunday: 9:00AM - 10:30PM"
Le Jardin du Petit Palais,3.9,Paris,48.8655432,2.314571,"Monday: Closed, Tuesday: 10:00AM - 5:15PM, Wednesday: 10:00AM - 5:15PM, Thursday: 10:00AM - 5:15PM, Friday: 10:00AM - 7:15PM, Saturday: 10:00AM - 7:15PM, Sunday: 10:00AM - 5:15PM"
La Régalade,4.4,Paris,48.8616807,2.3420098,"Monday: Closed, Tuesday: 12:15 - 2:30PM, 7:15 - 10:15PM, Wednesday: 12:15 - 2:30PM, 7:15 - 10:15PM, Thursday: 12:15 - 2:30PM, 7:15 - 10:15PM, Friday: 12:15 - 2:30PM, 7:15 - 11:00PM, Saturday: 12:15 - 2:30PM, 7:15 - 11:00PM, Sunday: Closed"
Happy Caffé,4.9,Paris,48.8646927,2.3296897,"Monday: 7:30AM - 10:30PM, Tuesday: 7:30AM - 10:30PM, Wednesday: 7:30AM - 10:30PM, Thursday: 7:30AM - 10:30PM, Friday: 7:30AM - 10:30PM, Saturday: 7:30AM - 10:30PM, Sunday: 7:30AM - 10:30PM"
Anticafé,4.5,Paris,45.76623540000001,4.835277299999999,"Monday: 8:30AM - 10:00PM, Tuesday: 8:30AM - 10:00PM, Wednesday: 8:30AM - 10:00PM, Thursday: 8:30AM - 10:00PM, Friday: 8:30AM - 10:00PM, Saturday: 9:30AM - 9:30PM, Sunday: 9:30AM - 9:30PM"
Le Relais de l’Entrecôte,4.1,Paris,48.868142,2.3027971,"Monday: 12:00 - 2:30PM, 6:45 - 11:00PM, Tuesday: 12:00 - 2:30PM, 6:45 - 11:00PM, Wednesday: 12:00 - 2:30PM, 6:45 - 11:00PM, Thursday: 12:00 - 2:30PM, 6:45 - 11:00PM, Friday: 12:00 - 2:30PM, 6:45 - 11:00PM, Saturday: 12:00 - 3:00PM, 6:45 - 11:00PM, Sunday: 12:00 - 3:00PM, 6:45 - 11:00PM"
Gambino,4.3,Paris,-22.93002,-43.1771714,"Monday: 11:00AM - 12:00AM, Tuesday: 11:00AM - 12:00AM, Wednesday: 11:00AM - 12:00AM, Thursday: 11:00AM - 12:00AM, Friday: 11:00AM - 12:00AM, Saturday: 11:00AM - 12:00AM, Sunday: 11:00AM - 12:00AM"
Odette,4.8,Paris,-33.927451,18.4130126,"Monday: 10:00AM - 5:00PM, Tuesday: 10:00AM - 5:00PM, Wednesday: 10:00AM - 5:00PM, Thursday: 10:00AM - 5:00PM, Friday: 10:00AM - 5:00PM, Saturday: Closed, Sunday: Closed"
Le Boui Boui,4.4,Paris,48.8649864,2.3476219,"Monday: Closed, Tuesday: 9:00AM - 2:30PM, 6:00PM - 1:00AM, Wednesday: 9:00AM - 2:30PM, 6:00PM - 1:00AM, Thursday: 9:00AM - 2:30PM, 6:00PM - 1:00AM, Friday: 9:00AM - 2:30PM, 6:00PM - 1:00AM, Saturday: 9:00AM - 2:30PM, 6:00PM - 1:00AM, Sunday: Closed"
Frenchie Restaurant,4.4,Paris,-33.7291824,18.9728127,"Monday: 7:30AM - 6:00PM, Tuesday: 7:30AM - 6:00PM, Wednesday: 7:30AM - 6:00PM, Thursday: 7:30AM - 6:00PM, Friday: 7:30AM - 6:00PM, Saturday: 8:00AM - 4:00PM, Sunday: 9:00AM - 2:00PM"
La Seine Café,4.8,Paris,48.85006009999999,2.368764199999999,"Monday: 9:00AM - 2:00AM, Tuesday: 9:00AM - 2:00AM, Wednesday: 9:00AM - 2:00AM, Thursday: 9:00AM - 2:00AM, Friday: 9:00AM - 2:00AM, Saturday: 10:00AM - 2:00AM, Sunday: 10:00AM - 12:00AM"
Pain Vin Fromages,4.4,Paris,48.8605157,2.3545076,"Monday: Closed, Tuesday: Closed, Wednesday: 12:00PM - 12:00AM, Thursday: 12:00PM - 12:00AM, Friday: 12:00PM - 12:00AM, Saturday: 12:00PM - 12:00AM, Sunday: 12:00PM - 12:00AM"
La Grange aux Canards,4.7,Paris,48.8505845,2.3490061,"Monday: Closed, Tuesday: Closed, Wednesday: 6:00 - 10:30PM, Thursday: 6:00 - 10:30PM, Friday: 6:00 - 10:30PM, Saturday: 12:00 - 2:00PM, 6:00 - 10:30PM, Sunday: 6:00 - 10:30PM"
Chez le Libanais,4.5,Paris,48.85327270000001,2.3416153,"Monday: 11:00AM - 11:00PM, Tuesday: 11:00AM - 11:00PM, Wednesday: 11:00AM - 11:00PM, Thursday: 11:00AM - 11:50PM, Friday: 11:00AM - 11:50PM, Saturday: 11:00AM - 11:50PM, Sunday: 11:00AM - 11:00PM"
Café Louise,4.3,Paris,48.8538173,2.3321329,"Monday: 7:00AM - 2:00AM, Tuesday: 7:00AM - 2:00AM, Wednesday: 7:00AM - 2:00AM, Thursday: 7:00AM - 2:00AM, Friday: 7:00AM - 2:00AM, Saturday: 7:00AM - 2:00AM, Sunday: 7:00AM - 2:00AM"
Claus - La Table du Petit-Déjeuner,4.3,Paris,48.862525,2.3404111,
Le Machon,4.8,Paris,48.8519431,2.3344567,"Monday: 12:00 - 2:30PM, 7:00 - 11:00PM, Tuesday: 12:00 - 2:30PM, 7:00 - 11:00PM, Wednesday: 12:00 - 2:30PM, 7:00 - 11:00PM, Thursday: 12:00 - 2:30PM, 7:00 - 11:00PM, Friday: 12:00 - 2:30PM, 7:00 - 11:00PM, Saturday: 12:00 - 2:30PM, 7:00 - 11:00PM, Sunday: 12:00 - 2:30PM, 7:00 - 11:00PM"
Le Comptoir,4.4,Paris,43.6002164,3.899293699999999,"Monday: 10:00AM - 12:00AM, Tuesday: 10:00AM - 12:00AM, Wednesday: 10:00AM - 12:00AM, Thursday: 10:00AM - 12:00AM, Friday: 10:00AM - 12:00AM, Saturday: 10:00AM - 12:00AM, Sunday: 10:00AM - 12:00AM"
Le Machon,4.8,Paris,48.8519431,2.3344567,"Monday: 12:00 - 2:30PM, 7:00 - 11:00PM, Tuesday: 12:00 - 2:30PM, 7:00 - 11:00PM, Wednesday: 12:00 - 2:30PM, 7:00 - 11:00PM, Thursday: 12:00 - 2:30PM, 7:00 - 11:00PM, Friday: 12:00 - 2:30PM, 7:00 - 11:00PM, Saturday: 12:00 - 2:30PM, 7:00 - 11:00PM, Sunday: 12:00 - 2:30PM, 7:00 - 11:00PM"
Le Comptoir,4.4,Paris,43.6002164,3.899293699999999,"Monday: 10:00AM - 12:00AM, Tuesday: 10:00AM - 12:00AM, Wednesday: 10:00AM - 12:00AM, Thursday: 10:00AM - 12:00AM, Friday: 10:00AM - 12:00AM, Saturday: 10:00AM - 12:00AM, Sunday: 10:00AM - 12:00AM"
Le Relais de l’Entrecôte,4.0,Paris,48.868142,2.3027971,"Monday: 12:00 - 2:30PM, 6:45 - 11:00PM, Tuesday: 12:00 - 2:30PM, 6:45 - 11:00PM, Wednesday: 12:00 - 2:30PM, 6:45 - 11:00PM, Thursday: 12:00 - 2:30PM, 6:45 - 11:00PM, Friday: 12:00 - 2:30PM, 6:45 - 11:00PM, Saturday: 12:00 - 3:00PM, 6:45 - 11:00PM, Sunday: 12:00 - 3:00PM, 6:45 - 11:00PM"
Le Bistro Lyonnais,4.4,Paris,48.8466212,2.3740311,"Monday: 9:00AM - 10:00PM, Tuesday: 9:00AM - 10:00PM, Wednesday: 9:00AM - 10:00PM, Thursday: 9:00AM - 10:00PM, Friday: 9:00AM - 10:00PM, Saturday: 9:00AM - 10:00PM, Sunday: 9:00AM - 10:00PM"
Marcelle,5.0,Paris,-33.823467,18.655532,
La Poule au Pot,4.2,Paris,48.8618061,2.3432436,"Monday: Closed, Tuesday: 12:00 - 2:00PM, 7:00 - 11:00PM, Wednesday: 12:00 - 2:00PM, 7:00 - 11:00PM, Thursday: 12:00 - 2:00PM, 7:00 - 11:00PM, Friday: 12:00 - 2:00PM, 7:00 - 11:00PM, Saturday: 12:00 - 2:00PM, 7:00 - 11:00PM, Sunday: Closed"
Shakespeare and Company,4.5,Paris,48.8525632,2.347130299999999,"Monday: 10:00AM - 8:00PM, Tuesday: 10:00AM - 8:00PM, Wednesday: 10:00AM - 8:00PM, Thursday: 10:00AM - 8:00PM, Friday: 10:00AM - 8:00PM, Saturday: 10:00AM - 8:00PM, Sunday: 12:00 - 7:00PM"
La Consigne,4.3,Paris,48.8461892,2.3724639,"Monday: 7:00AM - 10:00PM, Tuesday: 7:00AM - 10:00PM, Wednesday: 7:00AM - 10:00PM, Thursday: 7:00AM - 10:00PM, Friday: 7:00AM - 10:00PM, Saturday: 7:00AM - 10:00PM, Sunday: 7:00AM - 10:00PM"
Le Bistro du Périgord,4.5,Paris,48.84987899999999,2.3451762,"Monday: 7:00AM - 10:30PM, Tuesday: 7:00AM - 10:30PM, Wednesday: 7:00AM - 10:30PM, Thursday: 7:00AM - 10:30PM, Friday: 7:00AM - 10:30PM, Saturday: 7:00AM - 10:30PM, Sunday: Closed"
Comptoir des Frangins,4.7,Paris,48.84296870000001,2.2434933,"Monday: 7:30AM - 11:00PM, Tuesday: 7:30AM - 11:00PM, Wednesday: 7:30AM - 11:00PM, Thursday: 7:30AM - 11:00PM, Friday: 7:30AM - 11:00PM, Saturday: 9:00AM - 11:00PM, Sunday: Closed"
Poulette,4.3,Paris,48.8633944,2.3503742,"Monday: 6:30 - 11:00PM, Tuesday: 6:30 - 11:00PM, Wednesday: 6:30 - 11:00PM, Thursday: 6:30 - 11:00PM, Friday: 6:30 - 11:00PM, Saturday: 6:30 - 11:00PM, Sunday: 6:30 - 11:00PM"
Ober Mamma,4.3,Paris,48.86445089999999,2.3701427,"Monday: 12:00 - 2:30PM, 6:45 - 10:45PM, Tuesday: 12:00 - 2:30PM, 6:45 - 10:45PM, Wednesday: 12:00 - 2:30PM, 6:45 - 10:45PM, Thursday: 12:00 - 2:30PM, 6:30 - 11:00PM, Friday: 12:00 - 2:30PM, 6:30 - 11:00PM, Saturday: 12:00 - 3:30PM, 6:30 - 11:00PM, Sunday: 12:00 - 3:30PM, 6:45 - 10:45PM"
Le Comptoir,3.8,Paris,43.6002164,3.899293699999999,"Monday: 10:00AM - 12:00AM, Tuesday: 10:00AM - 12:00AM, Wednesday: 10:00AM - 12:00AM, Thursday: 10:00AM - 12:00AM, Friday: 10:00AM - 12:00AM, Saturday: 10:00AM - 12:00AM, Sunday: 10:00AM - 12:00AM"
Le Café,4.3,Paris,-33.832528,18.685428,"Monday: 8:00AM - 5:30PM, Tuesday: 8:00AM - 5:30PM, Wednesday: 8:00AM - 5:30PM, Thursday: 8:00AM - 5:30PM, Friday: 8:00AM - 5:30PM, Saturday: 8:00AM - 3:00PM, Sunday: 9:00AM - 3:00PM"
Le Roi de Pique,4.4,Paris,48.8633934,2.3583739,"Monday: 7:00AM - 2:00AM, Tuesday: 7:00AM - 2:00AM, Wednesday: 7:00AM - 2:00AM, Thursday: 7:00AM - 2:00AM, Friday: 7:00AM - 2:00AM, Saturday: 9:00AM - 2:00AM, Sunday: 10:00AM - 8:00PM"
L’îlot,4.5,Paris,48.86476469999999,2.363403099999999,"Monday: Closed, Tuesday: 7:00 - 10:30PM, Wednesday: 7:00 - 10:30PM, Thursday: 7:00 - 10:30PM, Friday: 7:00 - 11:00PM, Saturday: 7:00 - 11:00PM, Sunday: Closed"
Chez Paul,5.0,Paris,48.85282000000001,2.374342,"Monday: 12:00PM - 12:30AM, Tuesday: 12:00PM - 12:30AM, Wednesday: 12:00PM - 12:30AM, Thursday: 12:00PM - 12:30AM, Friday: 12:00PM - 12:30AM, Saturday: 12:00PM - 12:30AM, Sunday: 12:00PM - 12:30AM"
L’Abreuvoir,4.3,Paris,48.8519379,2.2889287,"Monday: 8:00AM - 11:30PM, Tuesday: 8:00AM - 11:30PM, Wednesday: 8:00AM - 11:30PM, Thursday: 8:00AM - 11:30PM, Friday: 8:00AM - 11:30PM, Saturday: 8:00AM - 11:30PM, Sunday: 9:00AM - 11:30PM"
Café de la Régence,4.1,Paris,48.8635668,2.334513,"Monday: 7:00AM - 2:00AM, Tuesday: 7:00AM - 2:00AM, Wednesday: 7:00AM - 2:00AM, Thursday: 7:00AM - 2:00AM, Friday: 7:00AM - 2:00AM, Saturday: 7:00AM - 2:00AM, Sunday: 7:00AM - 2:00AM"
Opium la Cabane,4.8,Paris,48.8541513,2.3387211,"Monday: 12:00 - 11:00PM, Tuesday: 12:00 - 11:00PM, Wednesday: 12:00 - 11:00PM, Thursday: 12:00 - 11:00PM, Friday: 12:00 - 11:30PM, Saturday: 12:00 - 11:30PM, Sunday: 12:00 - 11:30PM"
Le Petit Opportun,4.8,Paris,-33.911585,19.1229291,"Monday: Open 24 hours, Tuesday: Open 24 hours, Wednesday: Open 24 hours, Thursday: Open 24 hours, Friday: Open 24 hours, Saturday: Open 24 hours, Sunday: Open 24 hours"
CoCo,4.1,Paris,-33.92103,18.4193,"Monday: Closed, Tuesday: Closed, Wednesday: Closed, Thursday: Closed, Friday: 10:00PM - 4:00AM, Saturday: 10:00PM - 4:00AM, Sunday: 10:00PM - 4:00AM"
Le Bistrot D Eustache,3.9,Paris,48.8618491,2.343584700000001,
Freddy’s,4.7,Paris,-33.9154314,18.4181623,"Monday: 9:00AM - 5:00PM, Tuesday: 9:00AM - 5:00PM, Wednesday: 9:00AM - 5:00PM, Thursday: 9:00AM - 5:00PM, Friday: 9:00AM - 5:00PM, Saturday: 9:00AM - 5:00PM, Sunday: 10:00AM - 2:00PM"
Au Bourguignon du Marais,4.2,Paris,48.8554413,2.357582799999999,"Monday: 12:00 - 11:00PM, Tuesday: 12:00 - 11:00PM, Wednesday: 12:00 - 11:00PM, Thursday: 12:00 - 11:00PM, Friday: 12:00 - 11:30PM, Saturday: 12:00 - 11:30PM, Sunday: 12:00 - 11:00PM"
1995,4.8,Paris,,,N/A
20 Eiffel,4.5,Paris,48.859478,2.298476,"Monday: Closed, Tuesday: 12:00 - 2:00PM, 7:00 - 9:30PM, Wednesday: 12:00 - 2:00PM, 7:00 - 9:30PM, Thursday: 12:00 - 2:00PM, 7:00 - 9:30PM, Friday: 12:00 - 2:00PM, 7:00 - 9:30PM, Saturday: 12:00 - 2:00PM, 7:00 - 10:00PM, Sunday: Closed"
Le Coq & Fils - The Poultry House,4.4,Paris,48.8871994,2.337184399999999,"Monday: 12:00 - 3:00PM, 7:00 - 11:30PM, Tuesday: 12:00 - 3:00PM, 7:00 - 11:30PM, Wednesday: 12:00 - 3:00PM, 7:00 - 11:30PM, Thursday: 12:00 - 3:00PM, 7:00 - 11:30PM, Friday: 12:00 - 3:00PM, 7:00 - 11:30PM, Saturday: 12:00 - 3:00PM, 7:00 - 11:30PM, Sunday: 12:00 - 3:00PM, 7:00 - 11:30PM"
Chez Fernand,4.3,Paris,48.8518468,2.3344106,"Monday: Closed, Tuesday: 12:00 - 2:30PM, 7:00 - 11:00PM, Wednesday: 12:00 - 2:30PM, 7:00 - 11:00PM, Thursday: 12:00 - 2:30PM, 7:00 - 11:00PM, Friday: 12:00 - 2:30PM, 7:00 - 11:00PM, Saturday: 12:00 - 2:30PM, 7:00 - 11:30PM, Sunday: 12:00 - 2:30PM, 7:00 - 11:00PM"
Le Bon Pêcheur,3.9,Paris,48.8619867,2.3484394,"Monday: 8:00AM - 12:00AM, Tuesday: 8:00AM - 12:00AM, Wednesday: 8:00AM - 12:00AM, Thursday: 8:00AM - 12:00AM, Friday: 8:00AM - 12:00AM, Saturday: 8:00AM - 12:00AM, Sunday: 8:00AM - 12:00AM"
BREIZH Café Montorgueil | La Crêpe Autrement,4.9,Paris,48.8669047,2.347405600000001,"Monday: 11:30AM - 10:30PM, Tuesday: 11:30AM - 10:30PM, Wednesday: 11:30AM - 10:30PM, Thursday: 11:30AM - 10:30PM, Friday: 11:30AM - 11:00PM, Saturday: 11:30AM - 11:00PM, Sunday: 11:30AM - 10:30PM"
Le Relais du Louvre,4.2,Paris,48.85924579999999,2.341004799999999,
The Frog & Underground,4.4,Paris,48.8710315,2.3431093,"Monday: 12:00PM - 12:00AM, Tuesday: 12:00PM - 1:30AM, Wednesday: 12:00PM - 1:30AM, Thursday: 12:00PM - 2:00AM, Friday: 12:00PM - 5:00AM, Saturday: 12:00PM - 5:00AM, Sunday: 12:00PM - 12:00AM"
Brasserie Dubillot,4.0,Paris,48.8680791,2.3519853,"Monday: 9:00AM - 12:00AM, Tuesday: 9:00AM - 12:00AM, Wednesday: 9:00AM - 12:00AM, Thursday: 9:00AM - 12:00AM, Friday: 9:00AM - 12:00AM, Saturday: 9:00AM - 12:00AM, Sunday: 9:00AM - 12:00AM"
La Mascotte,4.5,Paris,48.86514100000001,2.3005457,"Monday: 7:00AM - 1:30AM, Tuesday: 7:00AM - 1:30AM, Wednesday: 7:00AM - 1:30AM, Thursday: 7:00AM - 1:30AM, Friday: 7:00AM - 1:30AM, Saturday: 7:00AM - 1:30AM, Sunday: 8:00AM - 1:30AM"
Bistrot Richelieu,4.2,Paris,48.8662086,2.3370134,"Monday: 8:00AM - 11:00PM, Tuesday: 8:00AM - 11:00PM, Wednesday: 8:00AM - 11:00PM, Thursday: 8:00AM - 11:00PM, Friday: 8:00AM - 11:00PM, Saturday: 9:00AM - 11:00PM, Sunday: 9:00AM - 6:00PM"
Baltard au Louvre,3.6,Paris,48.86341119999999,2.342716900000001,"Monday: 9:00AM - 11:00PM, Tuesday: 9:00AM - 11:00PM, Wednesday: 9:00AM - 11:00PM, Thursday: 9:00AM - 11:00PM, Friday: 9:00AM - 11:00PM, Saturday: 9:00AM - 11:00PM, Sunday: 9:00AM - 6:00PM"
Le P’tit Bistro,4.7,Paris,48.8575531,2.349636300000001,"Monday: 7:00AM - 11:00PM, Tuesday: 7:00AM - 11:00PM, Wednesday: 7:00AM - 11:00PM, Thursday: 7:00AM - 11:00PM, Friday: 7:00AM - 11:00PM, Saturday: 7:00AM - 11:00PM, Sunday: 7:00AM - 11:00PM"
Relais du Pont Neuf,3.8,Paris,48.8588485,2.341446299999999,"Monday: 7:00AM - 11:00PM, Tuesday: 7:00AM - 11:00PM, Wednesday: 7:00AM - 11:00PM, Thursday: 7:00AM - 11:00PM, Friday: 7:00AM - 11:00PM, Saturday: 8:00AM - 12:00AM, Sunday: 8:00AM - 12:00AM"
Le Louchébem,3.8,Paris,48.8616164,2.3443637,"Monday: 11:55AM - 2:30PM, 7:00 - 11:15PM, Tuesday: 11:55AM - 2:30PM, 7:00 - 11:15PM, Wednesday: 11:55AM - 2:30PM, 7:00 - 11:15PM, Thursday: 11:55AM - 2:30PM, 7:00 - 11:15PM, Friday: 11:55AM - 2:30PM, 7:00 - 11:15PM, Saturday: 11:55AM - 11:15PM, Sunday: 11:55AM - 10:00PM"
Relais du Pont Neuf,3.8,Paris,48.8588485,2.341446299999999,"Monday: 7:00AM - 11:00PM, Tuesday: 7:00AM - 11:00PM, Wednesday: 7:00AM - 11:00PM, Thursday: 7:00AM - 11:00PM, Friday: 7:00AM - 11:00PM, Saturday: 8:00AM - 12:00AM, Sunday: 8:00AM - 12:00AM"
Le Louchébem,3.8,Paris,48.8616164,2.3443637,"Monday: 11:55AM - 2:30PM, 7:00 - 11:15PM, Tuesday: 11:55AM - 2:30PM, 7:00 - 11:15PM, Wednesday: 11:55AM - 2:30PM, 7:00 - 11:15PM, Thursday: 11:55AM - 2:30PM, 7:00 - 11:15PM, Friday: 11:55AM - 2:30PM, 7:00 - 11:15PM, Saturday: 11:55AM - 11:15PM, Sunday: 11:55AM - 10:00PM"
Chez Mademoiselle,4.5,Paris,48.84367650000001,2.2951138,"Monday: Closed, Tuesday: 12:00 - 2:30PM, 7:00 - 10:30PM, Wednesday: 12:00 - 2:30PM, 7:00 - 10:30PM, Thursday: 12:00 - 2:30PM, 7:00 - 10:30PM, Friday: 12:00 - 2:30PM, 7:00 - 10:30PM, Saturday: 12:00 - 2:30PM, 7:00 - 10:30PM, Sunday: 12:00 - 2:30PM"
La Droguerie du Marais,4.6,Paris,48.8578988,2.3580589,
Canard Street,4.5,Paris,48.8667642,2.3371136,"Monday: 11:00AM - 10:00PM, Tuesday: 11:00AM - 10:00PM, Wednesday: 11:00AM - 10:00PM, Thursday: 11:00AM - 10:00PM, Friday: 11:00AM - 10:30PM, Saturday: 11:00AM - 10:30PM, Sunday: 11:00AM - 10:30PM"
Dong Phat,4.5,Paris,48.860506,2.305694,"Monday: 11:30AM - 3:00PM, 6:00 - 10:30PM, Tuesday: 11:30AM - 3:00PM, 6:00 - 10:30PM, Wednesday: 11:30AM - 3:00PM, 6:00 - 10:30PM, Thursday: 11:30AM - 3:00PM, 6:00 - 10:30PM, Friday: 11:30AM - 3:00PM, 6:00 - 10:00PM, Saturday: 11:30AM - 3:00PM, 6:00 - 10:30PM, Sunday: 11:30AM - 3:00PM, 6:00 - 10:30PM"
Langousta,4.9,Paris,48.8562372,2.278174,"Monday: 6:30 - 11:00PM, Tuesday: 6:30 - 11:00PM, Wednesday: 6:30 - 11:00PM, Thursday: 6:30 - 11:00PM, Friday: 6:30 - 11:00PM, Saturday: 6:30 - 11:00PM, Sunday: 6:30 - 11:00PM"
Le Prince Racine,4.4,Paris,48.8498386,2.3398433,"Monday: 8:00AM - 11:00PM, Tuesday: 8:00AM - 11:00PM, Wednesday: 8:00AM - 11:00PM, Thursday: 8:00AM - 11:00PM, Friday: 8:00AM - 11:00PM, Saturday: 10:00AM - 11:00PM, Sunday: 10:00AM - 11:00PM"
Café Saint-Régis,4.1,Paris,48.8529059,2.353797799999999,"Monday: 7:30AM - 2:00AM, Tuesday: 7:30AM - 2:00AM, Wednesday: 7:30AM - 2:00AM, Thursday: 7:30AM - 2:00AM, Friday: 7:30AM - 2:00AM, Saturday: 7:30AM - 2:00AM, Sunday: 7:30AM - 2:00AM"
Pedzouille,4.7,Paris,48.87601149999999,2.3484108,"Monday: 7:00 - 10:30PM, Tuesday: 7:00 - 10:30PM, Wednesday: 12:00 - 2:00PM, 7:00 - 10:30PM, Thursday: 12:00 - 2:00PM, 7:00 - 10:30PM, Friday: 12:00 - 2:00PM, 7:00 - 10:30PM, Saturday: 7:00 - 10:30PM, Sunday: Closed"
Robert et Louise,4.1,Paris,48.85906620000001,2.3594996,"Monday: 6:00 - 11:00PM, Tuesday: 6:00 - 11:00PM, Wednesday: 6:00 - 11:00PM, Thursday: 6:00 - 11:00PM, Friday: 12:00 - 3:00PM, 6:00 - 11:00PM, Saturday: 12:00 - 3:00PM, 6:00 - 11:00PM, Sunday: 12:00 - 11:00PM"
Girafe,3.5,Paris,48.8630338,2.2885823,"Monday: 12:00 - 2:30PM, 7:00PM - 2:00AM, Tuesday: 12:00 - 2:30PM, 7:00PM - 2:00AM, Wednesday: 12:00 - 2:30PM, 7:00PM - 2:00AM, Thursday: 12:00 - 2:30PM, 7:00PM - 2:00AM, Friday: 12:00 - 2:30PM, 7:00PM - 2:00AM, Saturday: 12:00 - 4:00PM, 7:00PM - 2:00AM, Sunday: 12:00 - 4:00PM, 7:00PM - 2:00AM"
Ippudo Louvre,4.1,Paris,48.8645486,2.3447129,"Monday: 12:00 - 3:00PM, 6:00 - 10:00PM, Tuesday: 12:00 - 3:00PM, 6:00 - 10:00PM, Wednesday: 12:00 - 3:00PM, 6:00 - 10:00PM, Thursday: 12:00 - 3:00PM, 6:00 - 10:00PM, Friday: 12:00 - 3:00PM, 6:00 - 11:00PM, Saturday: 12:00 - 11:00PM, Sunday: 12:00 - 10:30PM"
Café Louise,4.0,Paris,48.8538173,2.3321329,"Monday: 7:00AM - 2:00AM, Tuesday: 7:00AM - 2:00AM, Wednesday: 7:00AM - 2:00AM, Thursday: 7:00AM - 2:00AM, Friday: 7:00AM - 2:00AM, Saturday: 7:00AM - 2:00AM, Sunday: 7:00AM - 2:00AM"
Ô Chateau,4.4,Paris,48.86430000000001,2.3442,"Monday: 4:00PM - 12:00AM, Tuesday: 4:00PM - 12:00AM, Wednesday: 4:00PM - 12:00AM, Thursday: 4:00PM - 12:00AM, Friday: 4:00PM - 12:00AM, Saturday: 4:00PM - 12:00AM, Sunday: Closed"
Les Parisiennes,3.9,Paris,48.856614,2.3522219,
IMA,4.5,Paris,-33.9331658,18.4708169,"Monday: 8:30AM - 5:30PM, Tuesday: 8:30AM - 5:30PM, Wednesday: 8:30AM - 5:30PM, Thursday: 8:30AM - 5:30PM, Friday: 8:30AM - 5:30PM, Saturday: Closed, Sunday: Closed"
Chez Janou,4.1,Paris,48.8567159,2.367198300000001,"Monday: 8:00AM - 2:00AM, Tuesday: 8:00AM - 2:00AM, Wednesday: 8:00AM - 2:00AM, Thursday: 8:00AM - 2:00AM, Friday: 8:00AM - 2:00AM, Saturday: 8:00AM - 2:00AM, Sunday: 8:00AM - 2:00AM"
Gusto Italia,4.3,Paris,-33.8962091,18.5062055,"Monday: 6:30AM - 9:30PM, Tuesday: 6:30AM - 9:30PM, Wednesday: 6:30AM - 9:30PM, Thursday: 6:30AM - 9:30PM, Friday: 6:30AM - 9:30PM, Saturday: 7:00AM - 9:30PM, Sunday: 7:00AM - 2:30PM"
El Nopal,4.1,Paris,37.1723138,-3.6047075,"Monday: Closed, Tuesday: 1:00 - 4:00PM, 8:00 - 11:30PM, Wednesday: 1:00 - 4:00PM, 8:00 - 11:30PM, Thursday: 1:00 - 4:00PM, 8:00 - 11:30PM, Friday: 1:00 - 4:00PM, 8:00 - 11:30PM, Saturday: 1:00 - 4:00PM, 8:00 - 11:30PM, Sunday: 1:00 - 4:00PM, 8:00 - 11:30PM"
Le Caveau du Palais,4.4,Paris,48.856528,2.342055,"Monday: 11:00AM - 10:00PM, Tuesday: 11:00AM - 10:00PM, Wednesday: 11:00AM - 10:00PM, Thursday: 11:00AM - 10:00PM, Friday: 11:00AM - 10:00PM, Saturday: 11:00AM - 10:00PM, Sunday: 11:00AM - 10:00PM"
Le Florimond,4.6,Paris,48.8557114,2.3080987,"Monday: 12:00 - 2:00PM, 7:00 - 10:00PM, Tuesday: 12:00 - 2:00PM, 7:00 - 10:00PM, Wednesday: 12:00 - 2:00PM, 7:00 - 10:00PM, Thursday: 12:00 - 2:00PM, 7:00 - 10:00PM, Friday: 12:00 - 2:00PM, 7:00 - 10:00PM, Saturday: Closed, Sunday: Closed"
Brasserie de la Bourse,4.2,Paris,48.8629791,2.3412676,"Monday: 7:30AM - 12:00AM, Tuesday: 7:30AM - 12:00AM, Wednesday: 7:30AM - 12:00AM, Thursday: 7:30AM - 12:00AM, Friday: 7:30AM - 12:00AM, Saturday: 8:00AM - 12:00AM, Sunday: 8:00AM - 12:00AM"
Beefbar,4.0,Paris,-23.5673805,-46.66578940000001,"Monday: 12:00PM - 1:00AM, Tuesday: 12:00PM - 1:00AM, Wednesday: 12:00PM - 1:00AM, Thursday: 5:00PM - 1:00AM, Friday: 12:00PM - 1:00AM, Saturday: 12:00PM - 1:00AM, Sunday: 12:00PM - 1:00AM"
Chez Germaine,4.0,Paris,48.848334,2.31946,"Monday: 12:00 - 2:30PM, 7:00 - 10:00PM, Tuesday: 12:00 - 2:30PM, 7:00 - 10:00PM, Wednesday: 12:00 - 2:30PM, 7:00 - 10:00PM, Thursday: 12:00 - 2:30PM, 7:00 - 10:00PM, Friday: 12:00 - 2:30PM, 7:00 - 10:00PM, Saturday: 12:00 - 2:30PM, 7:00 - 10:00PM, Sunday: 12:00 - 2:30PM, 7:00 - 10:00PM"
Khajuraho,4.8,Paris,24.8318452,79.91985489999999,
Le Bistrot des Campagnes,4.6,Paris,48.84099629999999,2.3307099,"Monday: 12:00 - 2:30PM, 6:30 - 11:30PM, Tuesday: 12:00 - 2:30PM, 6:30 - 11:30PM, Wednesday: 12:00 - 2:30PM, 6:30 - 11:30PM, Thursday: 12:00 - 2:30PM, 6:30 - 11:30PM, Friday: 12:00 - 2:30PM, 6:30 - 11:30PM, Saturday: 6:30 - 11:30PM, Sunday: Closed"
Miznon,4.4,Paris,48.2083701,16.3747773,"Monday: Closed, Tuesday: 12:00 - 11:00PM, Wednesday: 12:00 - 11:00PM, Thursday: 12:00 - 11:00PM, Friday: 12:00 - 11:00PM, Saturday: 12:00 - 11:00PM, Sunday: Closed"
Maison Sauvage,3.8,Paris,48.8536424,2.3380628,"Monday: 7:00AM - 2:00AM, Tuesday: 7:00AM - 2:00AM, Wednesday: 7:00AM - 2:00AM, Thursday: 7:00AM - 2:00AM, Friday: 7:00AM - 2:00AM, Saturday: 7:00AM - 2:00AM, Sunday: 7:00AM - 2:00AM"
L’Entente,4.4,Paris,48.8691269,2.335473,"Monday: 12:00 - 3:00PM, 6:00 - 11:00PM, Tuesday: 12:00 - 3:00PM, 6:00 - 11:00PM, Wednesday: 12:00 - 3:00PM, 6:00 - 11:00PM, Thursday: 12:00 - 3:00PM, 6:00 - 11:00PM, Friday: 12:00 - 3:00PM, 6:00 - 11:00PM, Saturday: 9:00AM - 4:00PM, 5:00 - 11:00PM, Sunday: 9:00AM - 4:00PM, 5:00 - 11:00PM"
Enza & Famiglia Trattoria Pasta,4.6,Paris,48.8611394,2.343440199999999,"Monday: 11:30AM - 3:00PM, 6:30 - 10:30PM, Tuesday: 11:30AM - 3:00PM, 6:30 - 10:30PM, Wednesday: 11:30AM - 3:00PM, 6:30 - 10:30PM, Thursday: 11:30AM - 3:00PM, 6:30 - 10:30PM, Friday: 11:30AM - 3:00PM, 6:30 - 10:30PM, Saturday: 11:30AM - 3:00PM, 6:30 - 10:30PM, Sunday: Closed"
Au Petit Suisse,3.9,Paris,48.8491667,2.3391667,"Monday: 6:30AM - 2:00AM, Tuesday: 6:30AM - 2:00AM, Wednesday: 6:30AM - 2:00AM, Thursday: 6:30AM - 2:00AM, Friday: 6:30AM - 2:00AM, Saturday: 7:30AM - 2:00AM, Sunday: 7:30AM - 2:00AM"
Carpe Diem Café,4.2,Paris,,,N/A
Matamata Coffee Bar,4.7,Paris,48.866107,2.344117199999999,"Monday: 8:00AM - 6:00PM, Tuesday: 8:00AM - 6:00PM, Wednesday: 8:00AM - 6:00PM, Thursday: 8:00AM - 6:00PM, Friday: 8:00AM - 6:00PM, Saturday: 9:00AM - 6:00PM, Sunday: 9:00AM - 6:00PM"
Cézembre,4.8,Paris,48.6763889,-2.0719444,
Mystery Cuisine,4.8,Paris,48.86579870000001,2.3371097,"Monday: Closed, Tuesday: 8:00 - 9:00PM, Wednesday: 8:00 - 9:00PM, Thursday: 8:00 - 9:00PM, Friday: 8:00 - 9:00PM, Saturday: 8:00 - 9:00PM, Sunday: Closed"
L’Epicure,4.6,Paris,48.61309239999999,2.4811334,"Monday: Closed, Tuesday: 11:45AM - 2:30PM, 7:00 - 10:00PM, Wednesday: 11:45AM - 2:30PM, 7:00 - 10:00PM, Thursday: 11:45AM - 2:30PM, 7:00 - 10:00PM, Friday: 11:45AM - 2:30PM, 7:00 - 10:00PM, Saturday: 7:00 - 10:00PM, Sunday: Closed"
Guy Savoy,4.6,Paris,48.85670459999999,2.3391491,"Monday: Closed, Tuesday: 12:00 - 2:00PM, 7:00 - 10:30PM, Wednesday: 12:00 - 2:00PM, 7:00 - 10:30PM, Thursday: 12:00 - 2:00PM, 7:00 - 10:30PM, Friday: 12:00 - 2:00PM, 7:00 - 10:30PM, Saturday: 7:00 - 10:30PM, Sunday: Closed"
Le TUB,4.5,Paris,26.0182524,-80.1173278,"Monday: 11:00AM - 1:00AM, Tuesday: 11:00AM - 1:00AM, Wednesday: 11:00AM - 1:00AM, Thursday: 11:00AM - 1:00AM, Friday: 11:00AM - 2:00AM, Saturday: 11:00AM - 2:00AM, Sunday: 11:00AM - 1:00AM"
Arnaud Nicolas,4.5,Paris,48.85692750000001,2.3010287,"Monday: Closed, Tuesday: 12:00 - 2:00PM, 7:00 - 10:45PM, Wednesday: 12:00 - 2:00PM, 7:00 - 10:45PM, Thursday: 12:00 - 2:00PM, 7:00 - 10:45PM, Friday: 12:00 - 2:00PM, 7:00 - 10:45PM, Saturday: 12:00 - 2:00PM, 7:00 - 10:45PM, Sunday: Closed"
Au Petit Tonneau,4.7,Paris,48.8606607,2.3093591,"Monday: 12:00 - 2:30PM, 7:00 - 10:15PM, Tuesday: 12:00 - 2:30PM, 7:00 - 10:15PM, Wednesday: 12:00 - 2:30PM, 7:00 - 10:15PM, Thursday: 12:00 - 2:30PM, 7:00 - 10:15PM, Friday: 12:00 - 2:30PM, 7:00 - 10:15PM, Saturday: 12:00 - 2:30PM, 7:00 - 10:15PM, Sunday: 12:00 - 2:30PM, 7:00 - 10:15PM"
Ferdi,4.0,Paris,-34.1194899,18.8761629,"Monday: 7:00AM - 5:00PM, Tuesday: 7:00AM - 5:00PM, Wednesday: 7:00AM - 5:00PM, Thursday: 7:00AM - 5:00PM, Friday: 7:00AM - 5:00PM, Saturday: 8:00AM - 1:00PM, Sunday: Closed"
Les Bougresses,4.6,Paris,48.8557243,2.363063,"Monday: Closed, Tuesday: 6:30 - 10:30PM, Wednesday: 6:30 - 10:30PM, Thursday: 6:30 - 10:30PM, Friday: 6:30 - 10:30PM, Saturday: 12:00 - 2:30PM, 6:30 - 10:30PM, Sunday: 12:00 - 2:00PM, 6:30 - 10:30PM"
Le Confidentiel,4.4,Paris,48.8686658,2.3049365,"Monday: 6:30PM - 12:00AM, Tuesday: 6:30PM - 12:00AM, Wednesday: 6:30PM - 12:00AM, Thursday: 6:30PM - 12:00AM, Friday: 6:30PM - 2:00AM, Saturday: 12:00PM - 2:00AM, Sunday: 12:00PM - 12:00AM"
Café Madame,4.4,Paris,48.8483597,2.3317999,"Monday: 7:00AM - 11:30PM, Tuesday: 7:00AM - 11:30PM, Wednesday: 7:00AM - 11:30PM, Thursday: 7:00AM - 11:30PM, Friday: 7:00AM - 11:30PM, Saturday: 8:00AM - 11:30PM, Sunday: 9:00AM - 11:30PM"
POJO,4.5,Paris,-17.7576511,-64.8555513,
Le Bistrot d’Henri,4.3,Paris,48.852065,2.334431,"Monday: 12:00 - 3:00PM, 7:00 - 11:00PM, Tuesday: 12:00 - 3:00PM, 7:00 - 11:00PM, Wednesday: 12:00 - 3:00PM, 7:00 - 11:00PM, Thursday: 12:00 - 3:00PM, 7:00 - 11:00PM, Friday: 12:00 - 3:00PM, 7:00 - 11:00PM, Saturday: 12:00 - 3:00PM, 7:00 - 11:00PM, Sunday: 12:00 - 3:00PM, 7:00 - 11:00PM"
Le Chouchou,3.9,Paris,48.85997440000001,2.3487234,"Monday: 7:00AM - 2:00AM, Tuesday: 7:00AM - 2:00AM, Wednesday: 7:00AM - 2:00AM, Thursday: 7:00AM - 2:00AM, Friday: 7:00AM - 5:00AM, Saturday: 7:00AM - 5:00AM, Sunday: 7:00AM - 2:00AM"
Chez Gladines,4.1,Paris,48.82880400000001,2.3506,"Monday: 12:00 - 3:00PM, 7:00 - 10:30PM, Tuesday: 12:00 - 3:00PM, 7:00 - 10:30PM, Wednesday: 12:00 - 3:00PM, 7:00 - 10:30PM, Thursday: 12:00 - 3:00PM, 7:00 - 10:30PM, Friday: 12:00 - 3:00PM, 7:00 - 11:00PM, Saturday: 12:00 - 4:00PM, 7:00 - 11:00PM, Sunday: 12:00 - 4:00PM, 7:00 - 10:30PM"
Le Coupe Gorge,4.7,Paris,48.85748510000001,2.3504801,"Monday: Closed, Tuesday: 11:30AM - 2:30PM, 7:30 - 10:30PM, Wednesday: 11:30AM - 2:30PM, 7:30 - 10:30PM, Thursday: 11:30AM - 2:30PM, 7:30 - 10:30PM, Friday: 11:30AM - 2:30PM, 7:30 - 10:30PM, Saturday: 11:30AM - 2:30PM, 7:30 - 10:30PM, Sunday: Closed"
Le Chouchou,3.9,Paris,48.85997440000001,2.3487234,"Monday: 7:00AM - 2:00AM, Tuesday: 7:00AM - 2:00AM, Wednesday: 7:00AM - 2:00AM, Thursday: 7:00AM - 2:00AM, Friday: 7:00AM - 5:00AM, Saturday: 7:00AM - 5:00AM, Sunday: 7:00AM - 2:00AM"
Chez Gladines,4.1,Paris,48.82880400000001,2.3506,"Monday: 12:00 - 3:00PM, 7:00 - 10:30PM, Tuesday: 12:00 - 3:00PM, 7:00 - 10:30PM, Wednesday: 12:00 - 3:00PM, 7:00 - 10:30PM, Thursday: 12:00 - 3:00PM, 7:00 - 10:30PM, Friday: 12:00 - 3:00PM, 7:00 - 11:00PM, Saturday: 12:00 - 4:00PM, 7:00 - 11:00PM, Sunday: 12:00 - 4:00PM, 7:00 - 10:30PM"
Le Coupe Gorge,4.7,Paris,48.85748510000001,2.3504801,"Monday: Closed, Tuesday: 11:30AM - 2:30PM, 7:30 - 10:30PM, Wednesday: 11:30AM - 2:30PM, 7:30 - 10:30PM, Thursday: 11:30AM - 2:30PM, 7:30 - 10:30PM, Friday: 11:30AM - 2:30PM, 7:30 - 10:30PM, Saturday: 11:30AM - 2:30PM, 7:30 - 10:30PM, Sunday: Closed"
Terrass” Restaurant & Bar - Rooftop,4.1,Paris,-33.9188424,18.4258096,"Monday: 11:00AM - 10:30PM, Tuesday: 11:00AM - 10:30PM, Wednesday: 11:00AM - 10:30PM, Thursday: 11:00AM - 10:30PM, Friday: 11:00AM - 10:30PM, Saturday: 11:00AM - 10:30PM, Sunday: 11:00AM - 10:30PM"
Tradi,5.0,Paris,-33.904551,18.6131872,"Monday: 7:30AM - 5:00PM, Tuesday: 7:30AM - 5:00PM, Wednesday: 7:30AM - 5:00PM, Thursday: 7:30AM - 5:00PM, Friday: 7:30AM - 5:00PM, Saturday: Closed, Sunday: Closed"
L’Imprimerie,3.8,Paris,-33.9317824,18.6135838,"Monday: 8:00AM - 5:00PM, Tuesday: 8:00AM - 5:00PM, Wednesday: 8:00AM - 5:00PM, Thursday: 8:00AM - 5:00PM, Friday: 8:00AM - 3:00PM, Saturday: Closed, Sunday: Closed"
Le Porte Pot,4.3,Paris,48.85135330000001,2.3444917,
Le Volant Basque,4.6,Paris,48.8499212,2.2913047,"Monday: 6:45 - 10:30PM, Tuesday: 12:00 - 2:15PM, 6:45 - 10:30PM, Wednesday: 12:00 - 2:15PM, 6:45 - 10:30PM, Thursday: 12:00 - 2:15PM, 6:45 - 10:30PM, Friday: 12:00 - 2:15PM, 6:45 - 10:30PM, Saturday: 12:00 - 2:15PM, 6:45 - 10:30PM, Sunday: Closed"
Le Louis,4.4,Paris,48.8642569,2.3413659,"Monday: 8:00AM - 2:30PM, Tuesday: 8:00AM - 2:30PM, Wednesday: 8:00AM - 2:30PM, Thursday: 8:00AM - 2:30PM, Friday: 8:00AM - 2:30PM, 7:00 - 10:30PM, Saturday: 11:00AM - 4:00PM, 7:00 - 10:30PM, Sunday: 11:00AM - 4:00PM"
Les Fines Gueules,3.9,Paris,48.8652186,2.340657,"Monday: 12:00 - 2:30PM, 7:00 - 10:30PM, Tuesday: 12:00 - 2:30PM, 7:00 - 10:30PM, Wednesday: 12:00 - 2:30PM, 7:00 - 10:30PM, Thursday: 12:00 - 2:30PM, 7:00 - 10:30PM, Friday: 12:00 - 2:30PM, 7:00 - 10:30PM, Saturday: Closed, Sunday: Closed"
Aux Vieux Garçons,4.3,Paris,48.85666299999999,2.324706,"Monday: 10:00AM - 11:30PM, Tuesday: 10:00AM - 11:30PM, Wednesday: 10:00AM - 11:30PM, Thursday: 10:00AM - 11:30PM, Friday: 10:00AM - 11:30PM, Saturday: Closed, Sunday: Closed"
Two Stories,4.9,Paris,-33.9284616,18.4119804,
Le Cochon à l’Oreille,4.1,Paris,48.864467,2.345169,"Monday: Closed, Tuesday: 12:00 - 3:00PM, 7:00 - 10:30PM, Wednesday: 12:00 - 3:00PM, 7:00 - 10:30PM, Thursday: 12:00 - 3:00PM, 7:00 - 10:30PM, Friday: 12:00 - 3:00PM, 7:00 - 11:30PM, Saturday: 12:00 - 11:30PM, Sunday: 12:00 - 3:00PM"
San,5.0,Paris,-33.919279,18.5908012,"Monday: 7:30AM - 4:30PM, Tuesday: 7:30AM - 4:30PM, Wednesday: 7:30AM - 4:30PM, Thursday: 7:30AM - 4:30PM, Friday: 7:30AM - 1:00PM, Saturday: Closed, Sunday: Closed"
Bouillon Chartier,3.4,Paris,48.87193329999999,2.3430535,"Monday: 11:30AM - 12:00AM, Tuesday: 11:30AM - 12:00AM, Wednesday: 11:30AM - 12:00AM, Thursday: 11:30AM - 12:00AM, Friday: 11:30AM - 12:00AM, Saturday: 11:30AM - 12:00AM, Sunday: 11:30AM - 12:00AM"
Grand Hôtel du Palais Royal,4.7,Paris,48.8631306,2.3379051,"Monday: Open 24 hours, Tuesday: Open 24 hours, Wednesday: Open 24 hours, Thursday: Open 24 hours, Friday: Open 24 hours, Saturday: Open 24 hours, Sunday: Open 24 hours"
Kunitoraya - Bistro Udon,4.1,Paris,48.8659238,2.3368028,"Monday: 12:00 - 2:30PM, 7:00 - 10:00PM, Tuesday: 12:00 - 2:30PM, 7:00 - 10:00PM, Wednesday: 12:00 - 2:30PM, 7:00 - 10:00PM, Thursday: 12:00 - 2:30PM, 7:00 - 10:00PM, Friday: 12:00 - 2:30PM, 7:00 - 10:00PM, Saturday: 12:00 - 4:00PM, 7:00 - 10:00PM, Sunday: Closed"
Le Bougnat,4.3,Paris,49.28587339999999,-0.0976673,
BocaMexa,4.2,Paris,48.840196,2.349943,"Monday: 11:30AM - 10:00PM, Tuesday: 11:30AM - 10:00PM, Wednesday: 11:30AM - 10:00PM, Thursday: 11:30AM - 10:00PM, Friday: 11:30AM - 11:00PM, Saturday: 11:30AM - 11:00PM, Sunday: 11:30AM - 10:00PM"
Au Pied de Cochon,3.3,Paris,48.86351759999999,2.3437221,"Monday: 8:00 - 11:00AM, 11:30AM - 5:00AM, Tuesday: 8:00 - 11:00AM, 11:30AM - 5:00AM, Wednesday: 8:00 - 11:00AM, 11:30AM - 5:00AM, Thursday: 8:00 - 11:00AM, 11:30AM - 5:00AM, Friday: 8:00 - 11:00AM, 11:30AM - 5:00AM, Saturday: 8:00 - 11:00AM, 11:30AM - 5:00AM, Sunday: 8:00 - 11:00AM, 11:30AM - 5:00AM"
Le Petit Marché,4.3,Paris,48.8573383,2.3660742,"Monday: 12:00 - 3:00PM, 7:00 - 11:30PM, Tuesday: 12:00 - 3:00PM, 7:00 - 11:30PM, Wednesday: 12:00 - 3:00PM, 7:00 - 11:30PM, Thursday: 12:00 - 3:00PM, 7:00 - 11:30PM, Friday: 12:00 - 3:00PM, 7:00 - 11:30PM, Saturday: 12:00 - 4:00PM, 7:00 - 11:30PM, Sunday: 12:00 - 4:00PM, 7:00 - 11:30PM"
Balagan,4.5,Paris,32.0494495,75.2566564,
Kodawari Ramen,4.2,Paris,48.8546339,2.3381036,"Monday: 11:45AM - 11:00PM, Tuesday: 11:45AM - 11:00PM, Wednesday: 11:45AM - 11:00PM, Thursday: 11:45AM - 11:00PM, Friday: 11:45AM - 11:00PM, Saturday: 11:45AM - 11:00PM, Sunday: 11:45AM - 11:00PM"
Heureux Comme Alexandre,4.4,Paris,47.9019263,1.9053886,"Monday: 12:00 - 2:30PM, 6:00 - 10:00PM, Tuesday: 12:00 - 2:30PM, 6:00 - 10:00PM, Wednesday: 12:00 - 2:30PM, 6:00 - 10:00PM, Thursday: 12:00 - 2:30PM, 6:00 - 10:00PM, Friday: 12:00 - 2:30PM, 6:00 - 10:00PM, Saturday: 12:00 - 2:30PM, 6:00 - 10:00PM, Sunday: 12:00 - 2:30PM, 6:00 - 10:00PM"
Le Petit Pontoise,4.4,Paris,48.84987039999999,2.3521152,"Monday: 12:00 - 2:30PM, 6:30 - 10:30PM, Tuesday: Closed, Wednesday: 12:00 - 2:30PM, 6:30 - 10:30PM, Thursday: 12:00 - 2:30PM, 6:30 - 10:30PM, Friday: 12:00 - 2:30PM, 6:30 - 10:30PM, Saturday: 12:00 - 2:30PM, 6:30 - 10:30PM, Sunday: 12:00 - 2:30PM, 6:30 - 10:30PM"
Table,4.3,Paris,-33.8916472,18.6290348,"Monday: 9:00AM - 5:00PM, Tuesday: 9:00AM - 5:00PM, Wednesday: 9:00AM - 5:00PM, Thursday: 7:00 - 11:00PM, Friday: 9:00AM - 5:00PM, Saturday: 9:00AM - 5:00PM, Sunday: 9:00AM - 5:00PM"
Café de Mars,4.5,Paris,48.8573806,2.302124999999999,"Monday: 10:00AM - 4:00PM, Tuesday: 10:00AM - 11:00PM, Wednesday: 10:00AM - 11:00PM, Thursday: 10:00AM - 11:00PM, Friday: 10:00AM - 11:00PM, Saturday: 10:00AM - 11:00PM, Sunday: 10:00AM - 11:00PM"
Joséphine chez Dumonet,4.1,Paris,48.8457904,2.319870400000001,"Monday: 12:30 - 2:30PM, 7:30 - 10:00PM, Tuesday: 12:30 - 2:30PM, 7:30 - 10:00PM, Wednesday: 12:30 - 2:30PM, 7:30 - 10:00PM, Thursday: 12:30 - 2:30PM, 7:30 - 10:00PM, Friday: 12:30 - 2:30PM, 7:30 - 10:00PM, Saturday: Closed, Sunday: Closed"
Sacrée Fleur,4.6,Paris,48.8876187,2.3479882,"Monday: 11:30AM - 2:00PM, 6:30 - 10:30PM, Tuesday: 6:30 - 10:30PM, Wednesday: 6:30 - 10:30PM, Thursday: 6:30 - 10:30PM, Friday: 11:30AM - 2:00PM, 6:30 - 10:30PM, Saturday: 6:30 - 10:30PM, Sunday: Closed"
Chez Papa Jazz Club,4.3,Paris,48.85537959999999,2.3335089,"Monday: Closed, Tuesday: 7:30PM - 12:00AM, Wednesday: 7:30PM - 12:00AM, Thursday: 7:30PM - 12:00AM, Friday: 7:30PM - 12:00AM, Saturday: 7:30PM - 12:00AM, Sunday: Closed"
Bistrot Vivienne,3.8,Paris,48.866238,2.339503000000001,"Monday: 9:00AM - 12:00AM, Tuesday: 9:00AM - 12:00AM, Wednesday: 9:00AM - 12:00AM, Thursday: 9:00AM - 12:00AM, Friday: 9:00AM - 12:00AM, Saturday: 9:00AM - 12:00AM, Sunday: 9:00AM - 12:00AM"
Le Petit Médicis,4.4,Paris,48.848083,2.340147,"Monday: Closed, Tuesday: 12:00 - 3:00PM, 7:00 - 10:30PM, Wednesday: 12:00 - 3:00PM, 7:00 - 10:30PM, Thursday: 12:00 - 3:00PM, 7:00 - 10:30PM, Friday: 12:00 - 3:00PM, 7:00 - 10:30PM, Saturday: 12:00 - 3:00PM, 7:00 - 10:30PM, Sunday: Closed"
LouLou Montmartre,4.2,Paris,48.8868173,2.3444958,"Monday: 10:00AM - 5:00PM, 7:00PM - 1:00AM, Tuesday: 10:00AM - 5:00PM, 7:00PM - 1:00AM, Wednesday: 10:00AM - 5:00PM, 7:00PM - 1:00AM, Thursday: 10:00AM - 5:00PM, 7:00PM - 1:00AM, Friday: 10:00AM - 5:00PM, 7:00PM - 1:00AM, Saturday: 10:00AM - 5:00PM, 7:00PM - 1:00AM, Sunday: 10:00AM - 5:00PM, 7:00PM - 1:00AM"
Restaurant de la Tour,4.8,Paris,48.8544716,2.2949214,"Monday: 12:00 - 2:30PM, 7:00 - 10:30PM, Tuesday: 12:00 - 2:30PM, 7:00 - 10:30PM, Wednesday: 12:00 - 2:30PM, 7:00 - 10:30PM, Thursday: 12:00 - 2:30PM, 7:00 - 10:30PM, Friday: 12:00 - 2:30PM, 7:00 - 10:30PM, Saturday: Closed, Sunday: Closed"
Le Tout Petit,3.9,Paris,48.886593,2.3175029,"Monday: 12:00 - 3:00PM, 6:00PM - 12:00AM, Tuesday: 12:00 - 3:00PM, 6:00PM - 12:00AM, Wednesday: 12:00 - 3:00PM, 6:00PM - 12:00AM, Thursday: 12:00 - 3:00PM, 6:00PM - 12:00AM, Friday: 12:00 - 3:00PM, 6:00PM - 12:00AM, Saturday: 12:00 - 3:00PM, 6:00PM - 12:00AM, Sunday: 12:00 - 3:00PM, 6:00PM - 12:00AM"
Chez Pippo,4.4,Paris,48.85885409999999,2.2986011,"Monday: 12:00 - 11:00PM, Tuesday: 12:00 - 11:00PM, Wednesday: 12:00 - 11:00PM, Thursday: 12:00 - 11:00PM, Friday: 12:00 - 11:00PM, Saturday: 12:00 - 11:00PM, Sunday: 12:00 - 11:00PM"
La Maison de la Truffe,4.3,Paris,48.8707544,2.323964,"Monday: 12:00 - 4:30PM, 7:00 - 10:30PM, Tuesday: 12:00 - 4:00PM, 7:00 - 10:30PM, Wednesday: 12:00 - 4:00PM, 7:00 - 10:30PM, Thursday: 12:00 - 4:00PM, 7:00 - 10:30PM, Friday: 12:00 - 4:00PM, 7:00 - 10:30PM, Saturday: 12:00 - 4:00PM, 7:00 - 10:30PM, Sunday: Closed"
Holybelly 5,4.7,Paris,48.8710383,2.359659600000001,"Monday: 9:00AM - 5:00PM, Tuesday: 9:00AM - 5:00PM, Wednesday: 9:00AM - 5:00PM, Thursday: 9:00AM - 5:00PM, Friday: 9:00AM - 5:00PM, Saturday: 9:00AM - 5:00PM, Sunday: 9:00AM - 5:00PM"
L’Alsacien,4.7,Paris,48.858322,2.350675,"Monday: 12:00 - 3:00PM, 6:00 - 11:30PM, Tuesday: 12:00 - 3:00PM, 6:00 - 11:30PM, Wednesday: 12:00 - 3:00PM, 6:00 - 11:30PM, Thursday: 12:00 - 3:00PM, 6:00 - 11:30PM, Friday: 12:00 - 3:00PM, 6:00 - 11:30PM, Saturday: 12:00 - 3:00PM, 6:00 - 11:30PM, Sunday: 12:00 - 3:00PM, 6:00 - 11:30PM"
Iovine’s,4.6,Paris,48.8632569,2.340546999999999,"Monday: 12:00 - 3:00PM, 7:00 - 11:00PM, Tuesday: 12:00 - 3:00PM, 7:00 - 11:00PM, Wednesday: 12:00 - 3:00PM, 7:00 - 11:00PM, Thursday: 12:00 - 3:00PM, 7:00 - 11:00PM, Friday: 12:00 - 3:00PM, 7:00 - 11:00PM, Saturday: 12:00 - 3:00PM, 7:00 - 11:00PM, Sunday: 12:00 - 3:00PM, 7:00 - 11:00PM"
Holybelly 5,4.7,Paris,48.8710383,2.359659600000001,"Monday: 9:00AM - 5:00PM, Tuesday: 9:00AM - 5:00PM, Wednesday: 9:00AM - 5:00PM, Thursday: 9:00AM - 5:00PM, Friday: 9:00AM - 5:00PM, Saturday: 9:00AM - 5:00PM, Sunday: 9:00AM - 5:00PM"
L’Alsacien,4.7,Paris,48.858322,2.350675,"Monday: 12:00 - 3:00PM, 6:00 - 11:30PM, Tuesday: 12:00 - 3:00PM, 6:00 - 11:30PM, Wednesday: 12:00 - 3:00PM, 6:00 - 11:30PM, Thursday: 12:00 - 3:00PM, 6:00 - 11:30PM, Friday: 12:00 - 3:00PM, 6:00 - 11:30PM, Saturday: 12:00 - 3:00PM, 6:00 - 11:30PM, Sunday: 12:00 - 3:00PM, 6:00 - 11:30PM"
Iovine’s,4.6,Paris,48.8632569,2.340546999999999,"Monday: 12:00 - 3:00PM, 7:00 - 11:00PM, Tuesday: 12:00 - 3:00PM, 7:00 - 11:00PM, Wednesday: 12:00 - 3:00PM, 7:00 - 11:00PM, Thursday: 12:00 - 3:00PM, 7:00 - 11:00PM, Friday: 12:00 - 3:00PM, 7:00 - 11:00PM, Saturday: 12:00 - 3:00PM, 7:00 - 11:00PM, Sunday: 12:00 - 3:00PM, 7:00 - 11:00PM"
Aux Trois Mailletz,4.0,Paris,48.852174,2.346609,"Monday: 6:00PM - 5:00AM, Tuesday: 6:00PM - 5:00AM, Wednesday: 6:00PM - 5:00AM, Thursday: 6:00PM - 5:00AM, Friday: 6:00PM - 5:00AM, Saturday: 6:00PM - 5:00AM, Sunday: 6:00PM - 5:00AM"
Terra,4.7,Paris,-33.8733999,18.69176,"Monday: 10:00AM - 6:00PM, Tuesday: 10:00AM - 6:00PM, Wednesday: 10:00AM - 6:00PM, Thursday: 10:00AM - 6:00PM, Friday: 10:00AM - 6:00PM, Saturday: Closed, Sunday: Closed"
La Tour de Montlhéry ou chez Denise,3.9,Paris,48.86153400000001,2.344001,"Monday: 12:00PM - 12:30AM, Tuesday: 12:00PM - 12:30AM, Wednesday: 12:30PM - 12:30AM, Thursday: 12:00PM - 12:30AM, Friday: 12:00PM - 12:30AM, Saturday: 12:00PM - 12:30AM, Sunday: 12:00PM - 12:30AM"
Le Potager du Père Thierry,4.6,Paris,48.8845432,2.3412439,"Monday: 6:00PM - 12:00AM, Tuesday: 6:00PM - 12:00AM, Wednesday: 6:00PM - 12:00AM, Thursday: 6:00PM - 12:00AM, Friday: 6:00PM - 12:00AM, Saturday: 12:00 - 3:30PM, 6:00PM - 12:00AM, Sunday: 12:00 - 3:30PM, 6:00PM - 12:00AM"
East Mamma,4.3,Paris,48.8510421,2.3777743,"Monday: 12:00 - 2:30PM, 6:45 - 10:45PM, Tuesday: 12:00 - 2:30PM, 6:45 - 10:45PM, Wednesday: 12:00 - 2:30PM, 6:45 - 10:45PM, Thursday: 12:00 - 2:30PM, 6:45 - 11:00PM, Friday: 12:00 - 2:30PM, 6:45 - 11:00PM, Saturday: 12:00 - 3:30PM, 6:45 - 11:00PM, Sunday: 12:00 - 3:30PM, 6:45 - 10:45PM"
Nick’s Pizza,4.2,Paris,-34.53029549999999,-58.4846845,"Monday: Closed, Tuesday: 7:30 - 11:30PM, Wednesday: 7:30 - 11:30PM, Thursday: 7:30 - 11:30PM, Friday: 7:30 - 11:30PM, Saturday: 7:30 - 11:30PM, Sunday: 7:30 - 11:30PM"
le cambodge,3.9,Paris,12.565679,104.990963,
Les Papilles,4.5,Paris,48.8446215,2.3417325,"Monday: Closed, Tuesday: 12:00 - 2:00PM, 6:30 - 10:00PM, Wednesday: 12:00 - 2:00PM, 6:30 - 10:00PM, Thursday: 12:00 - 2:00PM, 6:30 - 10:00PM, Friday: 12:00 - 2:00PM, 6:30 - 10:00PM, Saturday: 12:00 - 2:00PM, 6:30 - 10:00PM, Sunday: Closed"
Café du Pont Neuf,3.4,Paris,48.8588485,2.341446299999999,"Monday: 7:00AM - 11:00PM, Tuesday: 7:00AM - 11:00PM, Wednesday: 7:00AM - 11:00PM, Thursday: 7:00AM - 11:00PM, Friday: 7:00AM - 11:00PM, Saturday: 8:00AM - 12:00AM, Sunday: 8:00AM - 12:00AM"
Les Embruns,4.4,Paris,47.76849,-3.5454061,"Monday: 10:00AM - 6:00PM, Tuesday: 10:00AM - 6:00PM, Wednesday: 10:00AM - 6:00PM, Thursday: 10:00AM - 6:00PM, Friday: 10:00AM - 6:00PM, Saturday: 10:00AM - 6:00PM, Sunday: 10:00AM - 6:00PM"
Le Mazenay,4.7,Paris,48.8636402,2.3533729,"Monday: 12:15 - 2:00PM, 7:15 - 10:30PM, Tuesday: 12:15 - 2:00PM, 7:15 - 10:30PM, Wednesday: 12:15 - 2:00PM, 7:15 - 10:30PM, Thursday: 12:15 - 2:00PM, 7:00 - 10:30PM, Friday: 12:15 - 2:00PM, 7:15 - 10:30PM, Saturday: Closed, Sunday: Closed"
Café des Anges,4.0,Paris,48.8554447,2.3745349,"Monday: 7:30AM - 2:00AM, Tuesday: 7:30AM - 2:00AM, Wednesday: 7:30AM - 2:00AM, Thursday: 7:30AM - 2:00AM, Friday: 7:30AM - 2:00AM, Saturday: 7:30AM - 2:00AM, Sunday: 7:30AM - 2:00AM"
Le Mermoz,5.0,Paris,48.8707341,2.3115407,"Monday: 12:00 - 2:30PM, 7:00 - 11:30PM, Tuesday: 12:00 - 2:30PM, 7:00 - 11:30PM, Wednesday: 12:00 - 2:30PM, 7:00 - 11:30PM, Thursday: 12:00 - 2:30PM, 7:00 - 11:30PM, Friday: 12:00 - 2:30PM, 7:00 - 11:30PM, Saturday: Closed, Sunday: Closed"
Uma Nota,4.7,Paris,48.8668589,2.3501851,"Monday: 6:30PM - 12:30AM, Tuesday: 6:30PM - 12:30AM, Wednesday: 6:30PM - 12:30AM, Thursday: 6:30PM - 12:30AM, Friday: 6:30PM - 1:30AM, Saturday: 6:30PM - 1:30AM, Sunday: Closed"
La Colonie,4.0,Paris,45.57956589999999,-73.44793159999999,"Monday: Closed, Tuesday: 5:00 - 9:00PM, Wednesday: 5:00 - 9:00PM, Thursday: 11:00AM - 2:00PM, 5:00 - 9:00PM, Friday: 11:00AM - 2:00PM, 5:00 - 9:00PM, Saturday: 5:00 - 9:00PM, Sunday: 5:00 - 9:00PM"
Chez la Vieille,4.1,Paris,48.8608781,2.342325799999999,
Shabestan,5.0,Paris,25.265139,55.31073,"Monday: 12:00 - 11:00PM, Tuesday: 12:30 - 11:00PM, Wednesday: 12:00 - 11:00PM, Thursday: 12:00 - 11:00PM, Friday: 12:00 - 11:00PM, Saturday: 12:00 - 11:00PM, Sunday: 12:00 - 11:00PM"
Le Cirque,3.9,Paris,-12.9359819,-38.4003518,
Tour d’Argent,3.9,Paris,48.8499507,2.354668299999999,"Monday: 12:00 - 2:15PM, 7:00 - 10:30PM, Tuesday: 12:00 - 2:15PM, 7:00 - 10:30PM, Wednesday: 12:00 - 2:15PM, 7:00 - 10:30PM, Thursday: 12:00 - 2:15PM, 7:00 - 10:30PM, Friday: 12:00 - 2:15PM, 7:00 - 10:30PM, Saturday: 12:00 - 2:15PM, 7:00 - 10:30PM, Sunday: 12:00 - 2:15PM, 7:00 - 10:30PM"
Ground Control,4.6,Paris,-26.0395635,28.0227694,"Monday: 9:00AM - 5:00PM, Tuesday: 9:00AM - 5:00PM, Wednesday: 9:00AM - 5:00PM, Thursday: 9:00AM - 5:00PM, Friday: 9:00AM - 5:00PM, Saturday: Closed, Sunday: Closed"
Restaurant Bachaumont,4.1,Paris,48.86628169999999,2.3450414,"Monday: 7:30AM - 2:00AM, Tuesday: 7:30AM - 2:00AM, Wednesday: 7:30AM - 2:00AM, Thursday: 7:30AM - 2:00AM, Friday: 7:30AM - 2:00AM, Saturday: 7:30AM - 2:00AM, Sunday: 7:30AM - 2:00AM"
La Brigade,4.8,Paris,48.8675204,2.3471483,"Monday: 12:00 - 2:30PM, 6:30 - 10:30PM, Tuesday: 12:00 - 2:30PM, 6:30 - 10:30PM, Wednesday: 12:00 - 2:30PM, 6:30 - 10:30PM, Thursday: 12:00 - 2:30PM, 6:30 - 10:30PM, Friday: 12:00 - 2:30PM, 6:30 - 10:30PM, Saturday: 12:00 - 10:30PM, Sunday: 12:00 - 10:30PM"
Buzkashi,4.7,Paris,48.8852953,2.3256534,"Monday: 7:00 - 10:30PM, Tuesday: 7:00 - 10:30PM, Wednesday: 7:00 - 10:30PM, Thursday: 7:00 - 10:30PM, Friday: 7:00 - 10:30PM, Saturday: 7:00 - 10:30PM, Sunday: Closed"
Chez Savy,4.4,Paris,48.86704599999999,2.307571,"Monday: 12:00 - 11:00PM, Tuesday: 12:00 - 11:00PM, Wednesday: 12:00 - 11:00PM, Thursday: 12:00 - 11:00PM, Friday: 12:00 - 11:00PM, Saturday: Closed, Sunday: Closed"
Derrière,3.9,Paris,48.86451799999999,2.354208,"Monday: 12:00 - 2:30PM, 7:30 - 11:00PM, Tuesday: 12:00 - 2:30PM, 7:30 - 11:00PM, Wednesday: 12:00 - 2:30PM, 7:30 - 11:00PM, Thursday: 12:00 - 2:30PM, 7:30 - 11:00PM, Friday: 12:00 - 2:30PM, 7:30 - 11:00PM, Saturday: 12:00 - 2:30PM, 7:30 - 11:00PM, Sunday: 12:00 - 4:00PM, 7:30 - 11:00PM"
Restaurant Véro-Dodat,4.5,Paris,48.8628431,2.3400587,"Monday: 11:00AM - 7:00PM, Tuesday: 11:00AM - 7:00PM, Wednesday: 11:00AM - 7:00PM, Thursday: 11:00AM - 7:00PM, Friday: 11:00AM - 7:00PM, Saturday: 11:00AM - 7:00PM, Sunday: Closed"
La Grande Cremerie,4.5,Paris,48.8533765,2.3378425,"Monday: 6:00PM - 12:00AM, Tuesday: 6:00PM - 12:00AM, Wednesday: 6:00PM - 12:00AM, Thursday: 6:00PM - 12:00AM, Friday: 6:00PM - 12:00AM, Saturday: 6:00PM - 12:00AM, Sunday: 6:00PM - 12:00AM"
Marcelle,4.2,Paris,-33.823467,18.655532,
Blend,3.8,Paris,-33.9438403,18.8515626,
La Réserve de Quasimodo,4.3,Paris,48.85467799999999,2.3504826,
Les Ursulines,4.5,Paris,48.8423949,2.3428479,"Monday: 6:45AM - 12:30AM, Tuesday: 6:45AM - 12:30AM, Wednesday: 6:45AM - 12:30AM, Thursday: 6:45AM - 12:30AM, Friday: 6:45AM - 12:30AM, Saturday: 6:45AM - 12:30AM, Sunday: Closed"
Gumbo Yaya,4.3,Paris,48.87719229999999,2.369995,"Monday: Closed, Tuesday: 12:00 - 10:00PM, Wednesday: 12:00 - 10:00PM, Thursday: 12:00 - 10:00PM, Friday: 12:00 - 10:00PM, Saturday: 12:00 - 10:00PM, Sunday: 12:00 - 3:00PM"
La Fresque,3.9,Paris,48.86252959999999,2.3480462,"Monday: 12:00 - 3:30PM, 7:00PM - 12:00AM, Tuesday: 12:00 - 3:30PM, 7:00PM - 12:00AM, Wednesday: 12:00 - 3:30PM, 7:00PM - 12:00AM, Thursday: 12:00 - 3:30PM, 7:00PM - 12:00AM, Friday: 12:00 - 3:30PM, 7:00PM - 12:00AM, Saturday: 12:00PM - 12:00AM, Sunday: Closed"
Le Poulailler,4.5,Paris,44.80728,-0.5487409999999998,"Monday: 10:00AM - 2:00PM, 4:30 - 8:00PM, Tuesday: 10:00AM - 2:00PM, 4:30 - 8:00PM, Wednesday: 10:00AM - 2:00PM, 4:30 - 8:00PM, Thursday: 10:00AM - 2:00PM, 4:30 - 8:00PM, Friday: 10:00AM - 2:00PM, 4:30 - 9:00PM, Saturday: 9:30AM - 2:00PM, 4:30 - 9:00PM, Sunday: Closed"
L’Aller Retour,4.3,Paris,48.8653492,2.3631512,"Monday: 7:00 - 11:00PM, Tuesday: 7:00 - 11:00PM, Wednesday: 7:00 - 11:00PM, Thursday: 7:00 - 11:00PM, Friday: 7:00 - 11:00PM, Saturday: 6:30 - 11:30PM, Sunday: 7:00 - 11:00PM"
Le Petit Lutetia,3.7,Paris,48.8483485,2.3205966,"Monday: 12:00 - 3:00PM, 7:15 - 11:00PM, Tuesday: 12:00 - 3:00PM, 7:15 - 11:00PM, Wednesday: 12:00 - 3:00PM, 7:15 - 11:00PM, Thursday: 12:00 - 3:00PM, 7:15 - 11:00PM, Friday: 12:00 - 3:00PM, 7:15 - 11:00PM, Saturday: 12:00 - 3:30PM, 7:15 - 11:30PM, Sunday: 12:00 - 3:30PM, 7:15 - 11:00PM"
Coretta,4.5,Paris,48.89058,2.316977,"Monday: Closed, Tuesday: 12:00 - 2:00PM, 7:30 - 10:00PM, Wednesday: 12:00 - 2:00PM, 7:30 - 10:00PM, Thursday: 12:00 - 2:00PM, 7:30 - 10:00PM, Friday: 12:00 - 2:00PM, 7:30 - 10:00PM, Saturday: 12:00 - 2:00PM, 7:30 - 10:00PM, Sunday: Closed"
Le Petit Lutetia,3.7,Paris,48.8483485,2.3205966,"Monday: 12:00 - 3:00PM, 7:15 - 11:00PM, Tuesday: 12:00 - 3:00PM, 7:15 - 11:00PM, Wednesday: 12:00 - 3:00PM, 7:15 - 11:00PM, Thursday: 12:00 - 3:00PM, 7:15 - 11:00PM, Friday: 12:00 - 3:00PM, 7:15 - 11:00PM, Saturday: 12:00 - 3:30PM, 7:15 - 11:30PM, Sunday: 12:00 - 3:30PM, 7:15 - 11:00PM"
Coretta,4.5,Paris,48.89058,2.316977,"Monday: Closed, Tuesday: 12:00 - 2:00PM, 7:30 - 10:00PM, Wednesday: 12:00 - 2:00PM, 7:30 - 10:00PM, Thursday: 12:00 - 2:00PM, 7:30 - 10:00PM, Friday: 12:00 - 2:00PM, 7:30 - 10:00PM, Saturday: 12:00 - 2:00PM, 7:30 - 10:00PM, Sunday: Closed"
Le Cinq,4.7,Paris,48.868849,2.300683,"Monday: Closed, Tuesday: 7:00 - 10:00PM, Wednesday: 7:00 - 10:00PM, Thursday: 7:00 - 10:00PM, Friday: 7:00 - 10:00PM, Saturday: 7:00 - 10:00PM, Sunday: Closed"
Le Colvert,4.6,Paris,,,N/A
Le Clarence,4.5,Paris,48.8674268,2.3097739,"Monday: Closed, Tuesday: 7:30 - 9:00PM, Wednesday: 12:30 - 1:30PM, 7:30 - 9:00PM, Thursday: 12:30 - 1:30PM, 7:30 - 9:00PM, Friday: 12:30 - 1:30PM, 7:30 - 9:00PM, Saturday: 12:30 - 1:30PM, 7:30 - 9:00PM, Sunday: Closed"
Le Trente Neuf,4.3,Paris,48.8621713,2.353704,"Monday: 12:00PM - 2:00AM, Tuesday: 12:00PM - 2:00AM, Wednesday: 12:00PM - 2:00AM, Thursday: 12:00PM - 2:00AM, Friday: 12:00PM - 2:00AM, Saturday: 12:00PM - 2:00AM, Sunday: Closed"
Paul,4.3,Paris,-33.94426930000001,18.6044709,
Les Arlots,4.7,Paris,48.88062219999999,2.3500034,"Monday: Closed, Tuesday: 12:00 - 2:00PM, 7:30 - 10:00PM, Wednesday: 12:00 - 2:00PM, 7:30 - 10:00PM, Thursday: 12:00 - 2:00PM, 7:30 - 10:00PM, Friday: 12:00 - 2:00PM, 7:30 - 10:00PM, Saturday: 12:00 - 2:00PM, 7:30 - 10:00PM, Sunday: Closed"
Le Bistro V,5.0,Paris,48.8377332,2.3462196,"Monday: Closed, Tuesday: 6:30 - 11:00PM, Wednesday: 6:30 - 11:00PM, Thursday: 6:30 - 11:00PM, Friday: 6:30 - 11:00PM, Saturday: 7:00 - 11:00PM, Sunday: 7:00 - 11:00PM"
Street Bangkok,4.6,Paris,13.7399155,100.5108772,"Monday: Closed, Tuesday: 5:00 - 11:00PM, Wednesday: 5:00 - 11:00PM, Thursday: 5:00 - 11:00PM, Friday: 5:00 - 11:00PM, Saturday: 5:00 - 11:00PM, Sunday: 5:00 - 11:00PM"
Le Bistro V,5.0,Paris,48.8377332,2.3462196,"Monday: Closed, Tuesday: 6:30 - 11:00PM, Wednesday: 6:30 - 11:00PM, Thursday: 6:30 - 11:00PM, Friday: 6:30 - 11:00PM, Saturday: 7:00 - 11:00PM, Sunday: 7:00 - 11:00PM"
Street Bangkok,4.6,Paris,13.7399155,100.5108772,"Monday: Closed, Tuesday: 5:00 - 11:00PM, Wednesday: 5:00 - 11:00PM, Thursday: 5:00 - 11:00PM, Friday: 5:00 - 11:00PM, Saturday: 5:00 - 11:00PM, Sunday: 5:00 - 11:00PM"
Ambassade d’Auvergne,4.0,Paris,48.86304459999999,2.3534095,"Monday: 12:00 - 2:00PM, 7:30 - 10:00PM, Tuesday: 12:00 - 2:00PM, 7:30 - 10:00PM, Wednesday: 12:00 - 2:00PM, 7:30 - 10:00PM, Thursday: 12:00 - 2:00PM, 7:30 - 10:30PM, Friday: 12:00 - 2:00PM, 7:00 - 10:30PM, Saturday: 12:00 - 2:00PM, 7:00 - 10:30PM, Sunday: 12:00 - 2:00PM, 7:00 - 9:30PM"
Le Soufflé,4.2,Paris,48.8664661,2.3264324,"Monday: Closed, Tuesday: 12:00 - 4:00PM, 7:00 - 10:00PM, Wednesday: 12:00 - 4:00PM, 7:00 - 10:00PM, Thursday: 12:00 - 4:00PM, 7:00 - 10:00PM, Friday: 12:00 - 4:00PM, 7:00 - 10:00PM, Saturday: 12:00 - 4:00PM, 7:00 - 10:00PM, Sunday: Closed"
Café Lai Tcha,4.7,Paris,48.8635584,2.3442057,"Monday: Closed, Tuesday: 12:00 - 2:30PM, 6:00 - 10:00PM, Wednesday: 12:00 - 2:30PM, 6:00 - 10:00PM, Thursday: 12:00 - 2:30PM, 6:00 - 10:00PM, Friday: 12:00 - 2:30PM, 6:00 - 10:00PM, Saturday: 12:00 - 10:00PM, Sunday: Closed"
Au Bon Accueil,4.4,Paris,48.85969790000001,2.2992811,"Monday: 12:00 - 2:00PM, 6:30 - 10:30PM, Tuesday: 12:00 - 2:00PM, 6:30 - 10:30PM, Wednesday: 12:00 - 2:00PM, 6:30 - 10:30PM, Thursday: 12:00 - 2:00PM, 6:30 - 10:30PM, Friday: 12:00 - 2:00PM, 6:30 - 10:30PM, Saturday: Closed, Sunday: Closed"
Il Etait un Square,4.8,Paris,48.83099720000001,2.3480279,"Monday: 12:00 - 3:00PM, 7:30 - 9:45PM, Tuesday: 12:00 - 3:00PM, 7:30 - 9:45PM, Wednesday: 12:00 - 3:00PM, 7:30 - 9:45PM, Thursday: 12:00 - 3:00PM, 7:30 - 9:45PM, Friday: 12:00 - 3:00PM, 7:30 - 9:45PM, Saturday: 12:00 - 2:30PM, 7:30 - 9:45PM, Sunday: Closed"
Les Papilles,4.5,Paris,48.8446215,2.3417325,"Monday: Closed, Tuesday: 12:00 - 2:00PM, 6:30 - 10:00PM, Wednesday: 12:00 - 2:00PM, 6:30 - 10:00PM, Thursday: 12:00 - 2:00PM, 6:30 - 10:00PM, Friday: 12:00 - 2:00PM, 6:30 - 10:00PM, Saturday: 12:00 - 2:00PM, 6:30 - 10:00PM, Sunday: Closed"
Café du Pont Neuf,3.4,Paris,48.8588485,2.341446299999999,"Monday: 7:00AM - 11:00PM, Tuesday: 7:00AM - 11:00PM, Wednesday: 7:00AM - 11:00PM, Thursday: 7:00AM - 11:00PM, Friday: 7:00AM - 11:00PM, Saturday: 8:00AM - 12:00AM, Sunday: 8:00AM - 12:00AM"
Les Embruns,4.4,Paris,47.76849,-3.5454061,"Monday: 10:00AM - 6:00PM, Tuesday: 10:00AM - 6:00PM, Wednesday: 10:00AM - 6:00PM, Thursday: 10:00AM - 6:00PM, Friday: 10:00AM - 6:00PM, Saturday: 10:00AM - 6:00PM, Sunday: 10:00AM - 6:00PM"
Café du Pont Neuf,3.4,Paris,48.8588485,2.341446299999999,"Monday: 7:00AM - 11:00PM, Tuesday: 7:00AM - 11:00PM, Wednesday: 7:00AM - 11:00PM, Thursday: 7:00AM - 11:00PM, Friday: 7:00AM - 11:00PM, Saturday: 8:00AM - 12:00AM, Sunday: 8:00AM - 12:00AM"
Les Embruns,4.4,Paris,47.76849,-3.5454061,"Monday: 10:00AM - 6:00PM, Tuesday: 10:00AM - 6:00PM, Wednesday: 10:00AM - 6:00PM, Thursday: 10:00AM - 6:00PM, Friday: 10:00AM - 6:00PM, Saturday: 10:00AM - 6:00PM, Sunday: 10:00AM - 6:00PM"
Le Mazenay,4.7,Paris,48.8636402,2.3533729,"Monday: 12:15 - 2:00PM, 7:15 - 10:30PM, Tuesday: 12:15 - 2:00PM, 7:15 - 10:30PM, Wednesday: 12:15 - 2:00PM, 7:15 - 10:30PM, Thursday: 12:15 - 2:00PM, 7:00 - 10:30PM, Friday: 12:15 - 2:00PM, 7:15 - 10:30PM, Saturday: Closed, Sunday: Closed"
Café des Anges,4.0,Paris,48.8554447,2.3745349,"Monday: 7:30AM - 2:00AM, Tuesday: 7:30AM - 2:00AM, Wednesday: 7:30AM - 2:00AM, Thursday: 7:30AM - 2:00AM, Friday: 7:30AM - 2:00AM, Saturday: 7:30AM - 2:00AM, Sunday: 7:30AM - 2:00AM"
Le Mermoz,5.0,Paris,48.8707341,2.3115407,"Monday: 12:00 - 2:30PM, 7:00 - 11:30PM, Tuesday: 12:00 - 2:30PM, 7:00 - 11:30PM, Wednesday: 12:00 - 2:30PM, 7:00 - 11:30PM, Thursday: 12:00 - 2:30PM, 7:00 - 11:30PM, Friday: 12:00 - 2:30PM, 7:00 - 11:30PM, Saturday: Closed, Sunday: Closed"
Uma Nota,4.7,Paris,48.8668589,2.3501851,"Monday: 6:30PM - 12:30AM, Tuesday: 6:30PM - 12:30AM, Wednesday: 6:30PM - 12:30AM, Thursday: 6:30PM - 12:30AM, Friday: 6:30PM - 1:30AM, Saturday: 6:30PM - 1:30AM, Sunday: Closed"
La Colonie,4.0,Paris,45.57956589999999,-73.44793159999999,"Monday: Closed, Tuesday: 5:00 - 9:00PM, Wednesday: 5:00 - 9:00PM, Thursday: 11:00AM - 2:00PM, 5:00 - 9:00PM, Friday: 11:00AM - 2:00PM, 5:00 - 9:00PM, Saturday: 5:00 - 9:00PM, Sunday: 5:00 - 9:00PM"
Chez la Vieille,4.1,Paris,48.8608781,2.342325799999999,
Shabestan,5.0,Paris,25.265139,55.31073,"Monday: 12:00 - 11:00PM, Tuesday: 12:30 - 11:00PM, Wednesday: 12:00 - 11:00PM, Thursday: 12:00 - 11:00PM, Friday: 12:00 - 11:00PM, Saturday: 12:00 - 11:00PM, Sunday: 12:00 - 11:00PM"
LouLou,4.0,Paris,-33.94189699999999,18.4995012,"Monday: 9:00AM - 3:00PM, Tuesday: 9:00AM - 3:00PM, Wednesday: 9:00AM - 3:00PM, Thursday: 9:00AM - 3:00PM, Friday: 9:00AM - 1:00PM, Saturday: Closed, Sunday: Closed"
Name,Rating,City,Latitude,Longitude,Opening Hours
Jirōmaru Akihabara,4.7,Tokyo,35.6984206,139.7705793,"Monday: 11:00AM - 11:00PM, Tuesday: 11:00AM - 11:00PM, Wednesday: 11:00AM - 11:00PM, Thursday: 11:00AM - 11:00PM, Friday: 11:00AM - 11:00PM, Saturday: 11:00AM - 11:00PM, Sunday: 11:00AM - 10:00PM"
Rokurinsha,4.4,Tokyo,35.6800592,139.7678465,"Monday: 7:30 - 9:30AM, 10:00AM - 10:30PM, Tuesday: 7:30 - 9:30AM, 10:00AM - 10:30PM, Wednesday: 7:30 - 9:30AM, 10:00AM - 10:30PM, Thursday: 7:30 - 9:30AM, 10:00AM - 10:30PM, Friday: 7:30 - 9:30AM, 10:00AM - 10:30PM, Saturday: 7:30 - 9:30AM, 10:00AM - 10:30PM, Sunday: 7:30 - 9:30AM, 10:00AM - 10:30PM"
SUSHIZANMAI Honten,4.4,Tokyo,35.6659044,139.7706492,"Monday: Open 24 hours, Tuesday: Open 24 hours, Wednesday: Open 24 hours, Thursday: Open 24 hours, Friday: Open 24 hours, Saturday: Open 24 hours, Sunday: Open 24 hours"
Kaneko Hannosuke,4.6,Tokyo,22.27523650000001,114.1722443,"Monday: 11:30AM - 9:30PM, Tuesday: 11:30AM - 9:30PM, Wednesday: 11:30AM - 9:30PM, Thursday: 11:30AM - 9:30PM, Friday: 11:30AM - 9:30PM, Saturday: 11:30AM - 9:30PM, Sunday: 11:30AM - 9:30PM"
Jirōmaru Shinjuku Honten,4.5,Tokyo,35.69490700000001,139.7004355,
Fūryū Okonomiyaki Sometarō,4.7,Tokyo,35.71190929999999,139.7909269,"Monday: 12:00 - 2:45PM, 5:30 - 8:15PM, Tuesday: Closed, Wednesday: Closed, Thursday: 12:00 - 2:45PM, 5:30 - 8:15PM, Friday: 12:00 - 2:45PM, 5:30 - 8:15PM, Saturday: 12:00 - 2:45PM, 5:30 - 9:30PM, Sunday: 12:00 - 2:45PM, 5:30 - 8:15PM"
Torikizoku Kanda Minamiguchi,4.3,Tokyo,35.6892842,139.7025048,"Monday: 4:00PM - 4:00AM, Tuesday: 4:00PM - 4:00AM, Wednesday: 4:00PM - 4:00AM, Thursday: 4:00PM - 4:00AM, Friday: 4:00PM - 4:00AM, Saturday: 3:00PM - 4:00AM, Sunday: 3:00PM - 4:00AM"
Gyukatsu Motomura Akihabara,4.9,Tokyo,35.69776089999999,139.7716177,"Monday: 11:00AM - 10:00PM, Tuesday: 11:00AM - 10:00PM, Wednesday: 11:00AM - 10:00PM, Thursday: 11:00AM - 10:00PM, Friday: 11:00AM - 10:00PM, Saturday: 11:00AM - 10:00PM, Sunday: 11:00AM - 10:00PM"
Coco Ichibanya Jr Akihabara Station Syouwadooriguchi,4.6,Tokyo,35.6984462,139.7758006,"Monday: 10:00AM - 11:30PM, Tuesday: 10:00AM - 11:30PM, Wednesday: 10:00AM - 11:30PM, Thursday: 10:00AM - 11:30PM, Friday: 10:00AM - 11:30PM, Saturday: 10:00AM - 11:30PM, Sunday: 10:00AM - 11:30PM"
Namaiki,4.9,Tokyo,51.51402940000001,-0.1349968,"Monday: Closed, Tuesday: Closed, Wednesday: 1:00 - 4:00PM, 6:00 - 10:00PM, Thursday: 1:00 - 4:00PM, 6:00 - 10:00PM, Friday: 1:00 - 4:00PM, 6:00 - 10:00PM, Saturday: 1:00 - 4:00PM, 6:00 - 10:00PM, Sunday: 1:00 - 4:00PM, 6:00 - 10:00PM"
AKIBA FUKUROU,4.8,Tokyo,35.7008009,139.7748397,"Monday: 12:00 - 6:00PM, Tuesday: Closed, Wednesday: 12:00 - 6:00PM, Thursday: 12:00 - 6:00PM, Friday: 12:00 - 6:00PM, Saturday: 12:00 - 6:00PM, Sunday: 12:00 - 6:00PM"
Asakusa gyuukatsu,4.8,Tokyo,35.71078320000001,139.7959483,"Monday: 11:00AM - 10:00PM, Tuesday: 11:00AM - 10:00PM, Wednesday: 11:00AM - 10:00PM, Thursday: 11:00AM - 10:00PM, Friday: 11:00AM - 10:00PM, Saturday: 11:00AM - 10:00PM, Sunday: 11:00AM - 10:00PM"
招福庵,5.0,Tokyo,35.6873734,139.7866061,"Monday: 11:30AM - 4:00PM, Tuesday: 11:30AM - 4:00PM, Wednesday: 11:30AM - 4:00PM, Thursday: 11:30AM - 4:00PM, Friday: 11:30AM - 4:00PM, Saturday: 11:30AM - 4:00PM, Sunday: 11:30AM - 4:00PM"
TORIYOSHI,4.3,Tokyo,35.6706317,139.7596916,"Monday: 4:00 - 10:00PM, Tuesday: 4:00 - 10:00PM, Wednesday: 4:00 - 10:00PM, Thursday: 4:00 - 10:00PM, Friday: 4:00 - 10:00PM, Saturday: 4:00 - 10:00PM, Sunday: 4:00 - 10:00PM"
Nemuro hanamaru,4.3,Tokyo,43.0679281,141.3501447,"Monday: 11:00AM - 10:00PM, Tuesday: 11:00AM - 10:00PM, Wednesday: 11:00AM - 10:00PM, Thursday: 11:00AM - 10:00PM, Friday: 11:00AM - 10:00PM, Saturday: 11:00AM - 10:00PM, Sunday: 11:00AM - 10:00PM"
Ichiran Atre Ueno Yamashitaguchi,4.2,Tokyo,35.71241959999999,139.7752174,"Monday: 10:00AM - 6:00AM, Tuesday: 10:00AM - 6:00AM, Wednesday: 10:00AM - 6:00AM, Thursday: 10:00AM - 6:00AM, Friday: 10:00AM - 6:00AM, Saturday: 10:00AM - 6:00AM, Sunday: 10:00AM - 6:00AM"
Halal Wagyu Yakiniku PANGA,4.6,Tokyo,35.704854,139.781011,"Monday: 11:30AM - 2:30PM, 5:00 - 10:30PM, Tuesday: 11:30AM - 2:30PM, 5:00 - 10:30PM, Wednesday: 11:30AM - 2:30PM, 5:00 - 10:30PM, Thursday: 11:30AM - 2:30PM, 5:00 - 10:30PM, Friday: 11:30AM - 2:30PM, 5:00 - 10:30PM, Saturday: 11:30AM - 2:30PM, 5:00 - 10:30PM, Sunday: 5:00 - 10:30PM"
Yayoiken,4.6,Tokyo,26.31547369999999,127.7601768,"Monday: 10:00AM - 11:00PM, Tuesday: 10:00AM - 11:00PM, Wednesday: 10:00AM - 11:00PM, Thursday: 10:00AM - 11:00PM, Friday: 10:00AM - 11:00PM, Saturday: 10:00AM - 11:00PM, Sunday: 10:00AM - 11:00PM"
MUSASHI by AMAN,5.0,Tokyo,35.6855536,139.7653677,"Monday: Closed, Tuesday: 5:00 - 10:00PM, Wednesday: 5:00 - 10:00PM, Thursday: 5:00 - 10:00PM, Friday: 5:00 - 10:00PM, Saturday: 5:00 - 10:00PM, Sunday: Closed"
Udon Maruka,4.7,Tokyo,35.6966988,139.7601228,"Monday: 11:00AM - 4:00PM, 5:00 - 7:30PM, Tuesday: 11:00AM - 4:00PM, 5:00 - 7:30PM, Wednesday: 11:00AM - 4:00PM, 5:00 - 7:30PM, Thursday: 11:00AM - 4:00PM, 5:00 - 7:30PM, Friday: 11:00AM - 4:00PM, 5:00 - 7:30PM, Saturday: 11:00AM - 2:30PM, Sunday: Closed"
Udon Maruka,4.7,Tokyo,35.6966988,139.7601228,"Monday: 11:00AM - 4:00PM, 5:00 - 7:30PM, Tuesday: 11:00AM - 4:00PM, 5:00 - 7:30PM, Wednesday: 11:00AM - 4:00PM, 5:00 - 7:30PM, Thursday: 11:00AM - 4:00PM, 5:00 - 7:30PM, Friday: 11:00AM - 4:00PM, 5:00 - 7:30PM, Saturday: 11:00AM - 2:30PM, Sunday: Closed"
Shin-Nihon Yakinikutō Higashi-Nihonbashi,4.5,Tokyo,35.68901639999999,139.774265,
Ichiran Shibuya,4.6,Tokyo,35.6611185,139.7009846,"Monday: 10:00AM - 6:00AM, Tuesday: 10:00AM - 6:00AM, Wednesday: 10:00AM - 6:00AM, Thursday: 10:00AM - 6:00AM, Friday: 10:00AM - 6:00AM, Saturday: 10:00AM - 6:00AM, Sunday: 10:00AM - 6:00AM"
Ganso Otoshi Dare Wolf Tokyo Kanda,4.3,Tokyo,,,N/A
Torikizoku Asakusa Rokku,4.4,Tokyo,35.7110972,139.7975375,"Monday: 3:00 - 11:00PM, Tuesday: 3:00 - 11:00PM, Wednesday: 3:00 - 11:00PM, Thursday: 3:00 - 11:00PM, Friday: 3:00 - 11:00PM, Saturday: 3:00 - 11:00PM, Sunday: 3:00 - 11:00PM"
TEMPURA TENDON TENYA Akihabara,4.6,Tokyo,35.7016208,139.7718084,"Monday: 10:30AM - 10:00PM, Tuesday: 10:30AM - 10:00PM, Wednesday: 10:30AM - 10:00PM, Thursday: 10:30AM - 10:00PM, Friday: 10:30AM - 10:00PM, Saturday: 10:00AM - 9:00PM, Sunday: 10:00AM - 9:00PM"
Robata Yokoyama,4.0,Tokyo,,,N/A
Roast Beef Ohno Akihabara,4.3,Tokyo,35.69844089999999,139.7706076,"Monday: 11:00AM - 10:00PM, Tuesday: 11:00AM - 10:00PM, Wednesday: 11:00AM - 10:00PM, Thursday: 11:00AM - 10:00PM, Friday: 11:00AM - 10:00PM, Saturday: 11:00AM - 10:00PM, Sunday: 11:00AM - 9:00PM"
Densuke,4.8,Tokyo,35.013564,135.763199,"Monday: 5:30 - 10:00PM, Tuesday: 5:30 - 10:00PM, Wednesday: 5:30 - 10:00PM, Thursday: 5:30 - 10:00PM, Friday: 5:30 - 10:00PM, Saturday: 5:30 - 10:00PM, Sunday: Closed"
Tsubameya Wagyu Grill,5.0,Tokyo,35.6754783,139.7667173,"Monday: Closed, Tuesday: 11:30AM - 2:00PM, 5:30 - 9:00PM, Wednesday: 11:30AM - 2:00PM, 5:30 - 9:00PM, Thursday: 11:30AM - 2:00PM, 5:30 - 9:00PM, Friday: 11:30AM - 2:00PM, 5:30 - 9:00PM, Saturday: 11:30AM - 2:00PM, 5:30 - 9:00PM, Sunday: 11:30AM - 4:00PM"
Kanda Matsuya,4.5,Tokyo,35.6961148,139.7687883,"Monday: 11:00AM - 8:30PM, Tuesday: 11:00AM - 8:30PM, Wednesday: 11:00AM - 8:30PM, Thursday: 11:00AM - 8:30PM, Friday: 11:00AM - 8:30PM, Saturday: 11:00AM - 7:30PM, Sunday: Closed"
Tokyo Ramen Street,4.3,Tokyo,35.68029349999999,139.7679568,"Monday: 7:30AM - 11:00PM, Tuesday: 7:30AM - 11:00PM, Wednesday: 7:30AM - 11:00PM, Thursday: 7:30AM - 11:00PM, Friday: 7:30AM - 11:00PM, Saturday: 7:30AM - 11:00PM, Sunday: 7:30AM - 11:00PM"
もとまる,4.8,Tokyo,35.64687219999999,139.7466417,"Monday: 10:00AM - 3:00AM, Tuesday: 10:00AM - 3:00AM, Wednesday: 10:00AM - 3:00AM, Thursday: 10:00AM - 3:00AM, Friday: 10:00AM - 3:00AM, Saturday: 10:00AM - 3:00AM, Sunday: 10:00AM - 10:00PM"
TORIYOSHI,4.3,Tokyo,35.6706317,139.7596916,"Monday: 4:00 - 10:00PM, Tuesday: 4:00 - 10:00PM, Wednesday: 4:00 - 10:00PM, Thursday: 4:00 - 10:00PM, Friday: 4:00 - 10:00PM, Saturday: 4:00 - 10:00PM, Sunday: 4:00 - 10:00PM"
Yayoiken,4.6,Tokyo,26.31547369999999,127.7601768,"Monday: 10:00AM - 11:00PM, Tuesday: 10:00AM - 11:00PM, Wednesday: 10:00AM - 11:00PM, Thursday: 10:00AM - 11:00PM, Friday: 10:00AM - 11:00PM, Saturday: 10:00AM - 11:00PM, Sunday: 10:00AM - 11:00PM"
Sharin Marunouchi,4.7,Tokyo,35.6846297,139.7651612,"Monday: 11:00AM - 10:30PM, Tuesday: 11:00AM - 10:30PM, Wednesday: 11:00AM - 10:30PM, Thursday: 11:00AM - 10:30PM, Friday: 11:00AM - 10:30PM, Saturday: 11:00AM - 3:00PM, Sunday: Closed"
Yakiniku Bar Yamato,5.0,Tokyo,13.7317103,100.5759833,"Monday: 11:00AM - 10:30PM, Tuesday: 11:00AM - 10:30PM, Wednesday: 11:00AM - 10:30PM, Thursday: 11:00AM - 10:30PM, Friday: 11:00AM - 10:30PM, Saturday: 11:00AM - 10:30PM, Sunday: 11:00AM - 10:30PM"
たどん,4.4,Tokyo,35.7006794,139.7694392,
Yanonesushi Nihonbashi Honten,4.8,Tokyo,35.68789100000001,139.7737943,"Monday: 11:30AM - 2:30PM, 5:00 - 10:30PM, Tuesday: 11:30AM - 2:30PM, 5:00 - 10:30PM, Wednesday: 11:30AM - 2:30PM, 5:00 - 10:30PM, Thursday: 11:30AM - 2:30PM, 5:00 - 10:30PM, Friday: 11:30AM - 2:30PM, 5:00 - 10:30PM, Saturday: 11:30AM - 2:30PM, 5:00 - 9:30PM, Sunday: Closed"
Hitsumabushi Nagoya Bincho,4.7,Tokyo,35.1828772,136.8991576,"Monday: Closed, Tuesday: 10:30AM - 4:00PM, Wednesday: 10:30AM - 4:00PM, Thursday: 10:30AM - 4:00PM, Friday: 10:30AM - 4:00PM, Saturday: 10:30AM - 3:00PM, 4:30 - 6:30PM, Sunday: 10:30AM - 3:00PM, 4:30 - 6:30PM"
Hitsumabushi Nagoya Bincho,4.7,Tokyo,35.1828772,136.8991576,"Monday: Closed, Tuesday: 10:30AM - 4:00PM, Wednesday: 10:30AM - 4:00PM, Thursday: 10:30AM - 4:00PM, Friday: 10:30AM - 4:00PM, Saturday: 10:30AM - 3:00PM, 4:30 - 6:30PM, Sunday: 10:30AM - 3:00PM, 4:30 - 6:30PM"
Honey Toast Cafe,4.3,Tokyo,-33.926116,18.4219369,"Monday: 6:30AM - 4:30PM, Tuesday: 6:30AM - 4:30PM, Wednesday: 6:30AM - 4:30PM, Thursday: 6:30AM - 4:30PM, Friday: 6:30AM - 4:30PM, Saturday: 8:30AM - 1:30PM, Sunday: Closed"
Tonkatsu Suzuki,4.6,Tokyo,35.6825714,139.7680861,"Monday: 11:00AM - 9:30PM, Tuesday: 11:00AM - 9:30PM, Wednesday: 11:00AM - 9:30PM, Thursday: 11:00AM - 9:30PM, Friday: 11:00AM - 9:30PM, Saturday: 11:00AM - 9:30PM, Sunday: 11:00AM - 9:30PM"
Yakiniku Jambo Hongō,4.9,Tokyo,35.7066862,139.7626148,"Monday: 5:00 - 11:30PM, Tuesday: 5:00 - 11:30PM, Wednesday: 5:00 - 11:30PM, Thursday: 5:00 - 11:30PM, Friday: 5:00 - 11:30PM, Saturday: 5:30 - 11:30PM, Sunday: 5:00 - 11:30PM"
SHOGUN BURGER SHINJYUKU,4.6,Tokyo,35.6940754,139.7024699,"Monday: 11:30AM - 3:30AM, Tuesday: 11:30AM - 3:30AM, Wednesday: 11:30AM - 3:30AM, Thursday: 11:30AM - 3:30AM, Friday: 11:30AM - 3:30AM, Saturday: 11:30AM - 3:30AM, Sunday: 11:30AM - 10:00PM"
Ichiran Atre Ueno Yamashitaguchi,4.2,Tokyo,35.71241959999999,139.7752174,"Monday: 10:00AM - 6:00AM, Tuesday: 10:00AM - 6:00AM, Wednesday: 10:00AM - 6:00AM, Thursday: 10:00AM - 6:00AM, Friday: 10:00AM - 6:00AM, Saturday: 10:00AM - 6:00AM, Sunday: 10:00AM - 6:00AM"
Aburi Sumiyaki Odori Ōtemachi,4.0,Tokyo,35.68840519999999,139.7647492,"Monday: 11:00AM - 2:30PM, 5:00 - 11:00PM, Tuesday: 11:00AM - 2:30PM, 5:00 - 11:00PM, Wednesday: 11:00AM - 2:30PM, 5:00 - 11:00PM, Thursday: 11:00AM - 2:30PM, 5:00 - 11:00PM, Friday: 11:00AM - 2:30PM, 5:00 - 11:00PM, Saturday: 11:00AM - 2:30PM, 5:00 - 10:00PM, Sunday: Closed"
HOSOKAWA,4.5,Tokyo,13.0835947,80.2004005,"Monday: 9:30AM - 6:30PM, Tuesday: 9:30AM - 6:30PM, Wednesday: 9:30AM - 6:30PM, Thursday: 9:30AM - 6:30PM, Friday: 9:30AM - 6:30PM, Saturday: 9:30AM - 6:30PM, Sunday: Closed"
Marugame Seimen I-Garden-Terrace,4.7,Tokyo,22.297025,114.1718959,"Monday: 11:30AM - 9:30PM, Tuesday: 11:30AM - 9:30PM, Wednesday: 11:30AM - 9:30PM, Thursday: 11:30AM - 9:30PM, Friday: 11:30AM - 9:30PM, Saturday: 11:30AM - 9:30PM, Sunday: 11:30AM - 9:30PM"
MENYA MUSASHI Bujin,4.6,Tokyo,35.6986383,139.7758435,"Monday: 11:00AM - 10:15PM, Tuesday: 11:00AM - 10:15PM, Wednesday: 11:00AM - 10:15PM, Thursday: 11:00AM - 10:15PM, Friday: 11:00AM - 10:15PM, Saturday: 11:00AM - 10:15PM, Sunday: 11:00AM - 10:15PM"
Ekibenya Matsuri,4.6,Tokyo,35.6811588,139.7667898,"Monday: 5:30AM - 10:00PM, Tuesday: 5:30AM - 10:00PM, Wednesday: 5:30AM - 10:00PM, Thursday: 5:30AM - 10:00PM, Friday: 5:30AM - 10:00PM, Saturday: 5:30AM - 10:00PM, Sunday: 5:30AM - 10:00PM"
Taniya,4.6,Tokyo,17.2973422,78.4335279,
Robata Yokoyama,4.0,Tokyo,,,N/A
ICHIRAN Asakusa,4.5,Tokyo,35.7111828,139.7976164,"Monday: 10:00AM - 10:00PM, Tuesday: 10:00AM - 10:00PM, Wednesday: 10:00AM - 10:00PM, Thursday: 10:00AM - 10:00PM, Friday: 10:00AM - 10:00PM, Saturday: 10:00AM - 10:00PM, Sunday: 10:00AM - 10:00PM"
Shin-Nihon Yakinikutō Higashi-Nihonbashi,4.5,Tokyo,35.68901639999999,139.774265,
Ibuki,4.9,Tokyo,-12.0919738,-76.97370169999999,"Monday: Closed, Tuesday: 12:30 - 3:30PM, 6:00 - 10:30PM, Wednesday: 12:30 - 3:30PM, 6:00 - 10:30PM, Thursday: 12:30 - 3:30PM, 6:00 - 10:30PM, Friday: 12:30 - 3:30PM, 6:00 - 10:30PM, Saturday: 12:30 - 3:30PM, 6:00 - 10:30PM, Sunday: 12:30 - 3:30PM, 6:00 - 10:30PM"
Sushi Dai,4.8,Tokyo,35.6444158,139.7822951,"Monday: 6:00AM - 2:00PM, Tuesday: 6:00AM - 2:00PM, Wednesday: Closed, Thursday: 6:00AM - 2:00PM, Friday: 6:00AM - 2:00PM, Saturday: 6:00AM - 2:00PM, Sunday: Closed"
Torikizoku Asakusa Rokku,4.4,Tokyo,35.7110972,139.7975375,"Monday: 3:00 - 11:00PM, Tuesday: 3:00 - 11:00PM, Wednesday: 3:00 - 11:00PM, Thursday: 3:00 - 11:00PM, Friday: 3:00 - 11:00PM, Saturday: 3:00 - 11:00PM, Sunday: 3:00 - 11:00PM"
Kamameshi Haru Ueno,5.0,Tokyo,35.7099005,139.7740961,
Kintarozushi asakusabashi,4.8,Tokyo,35.7176892,139.7961176,"Monday: 11:30AM - 10:00PM, Tuesday: 11:30AM - 10:00PM, Wednesday: 11:30AM - 10:00PM, Thursday: 11:30AM - 10:00PM, Friday: 11:30AM - 10:00PM, Saturday: 11:30AM - 10:00PM, Sunday: 11:30AM - 10:00PM"
Kamameshi Haru Ueno,5.0,Tokyo,35.7099005,139.7740961,
Kintarozushi asakusabashi,4.8,Tokyo,35.7176892,139.7961176,"Monday: 11:30AM - 10:00PM, Tuesday: 11:30AM - 10:00PM, Wednesday: 11:30AM - 10:00PM, Thursday: 11:30AM - 10:00PM, Friday: 11:30AM - 10:00PM, Saturday: 11:30AM - 10:00PM, Sunday: 11:30AM - 10:00PM"
Tonkatsu Maisen - Daimaru Tokyo Restarurant,4.7,Tokyo,35.6811671,139.7686211,"Monday: 11:00AM - 10:00PM, Tuesday: 11:00AM - 10:00PM, Wednesday: 11:00AM - 10:00PM, Thursday: 11:00AM - 10:00PM, Friday: 11:00AM - 10:00PM, Saturday: 11:00AM - 10:00PM, Sunday: 11:00AM - 10:00PM"
Ichiran Shibuya,4.6,Tokyo,35.6611185,139.7009846,"Monday: 10:00AM - 6:00AM, Tuesday: 10:00AM - 6:00AM, Wednesday: 10:00AM - 6:00AM, Thursday: 10:00AM - 6:00AM, Friday: 10:00AM - 6:00AM, Saturday: 10:00AM - 6:00AM, Sunday: 10:00AM - 6:00AM"
TRADER VIC’S,3.8,Tokyo,25.078639,55.1343786,"Monday: 5:00PM - 1:00AM, Tuesday: 5:00PM - 1:00AM, Wednesday: 5:00PM - 1:00AM, Thursday: 5:00PM - 1:00AM, Friday: 5:00PM - 2:00AM, Saturday: 1:00PM - 2:00AM, Sunday: 5:00PM - 1:00AM"
Imakatsu Roppongi Honten,4.8,Tokyo,35.6644501,139.7315786,"Monday: 11:30AM - 3:30PM, 6:00 - 10:00PM, Tuesday: 11:30AM - 3:30PM, 6:00 - 10:00PM, Wednesday: 11:30AM - 3:30PM, 6:00 - 10:00PM, Thursday: 11:30AM - 3:30PM, 6:00 - 10:00PM, Friday: 11:30AM - 3:30PM, 6:00 - 10:00PM, Saturday: 11:30AM - 3:30PM, 6:00 - 10:00PM, Sunday: Closed"
Taminosachi,5.0,Tokyo,,,N/A
Shinbashi Torishige Donburiko,4.2,Tokyo,35.66702799999999,139.756109,"Monday: 5:00 - 11:30PM, Tuesday: 5:00 - 11:00PM, Wednesday: 5:00 - 11:00PM, Thursday: 5:00 - 11:00PM, Friday: 5:00 - 11:00PM, Saturday: 5:00 - 11:00PM, Sunday: Closed"
Nihonbashi Asada,4.0,Tokyo,35.688314,139.7735186,"Monday: 6:30 - 9:00AM, 11:30AM - 1:30PM, 5:30 - 9:00PM, Tuesday: 6:30 - 9:00AM, 11:30AM - 1:30PM, 5:30 - 9:00PM, Wednesday: 6:30 - 9:00AM, 11:30AM - 1:30PM, 5:30 - 9:00PM, Thursday: 6:30 - 9:00AM, 11:30AM - 1:30PM, 5:30 - 9:00PM, Friday: 6:30 - 9:00AM, 11:30AM - 1:30PM, 5:30 - 9:00PM, Saturday: 6:30 - 9:00AM, 12:00 - 1:30PM, Sunday: 6:30 - 9:00AM, 12:00 - 1:30PM"
bills Ginza,4.3,Tokyo,35.67324290000001,139.7667056,"Monday: 8:30AM - 11:00PM, Tuesday: 8:30AM - 11:00PM, Wednesday: 8:30AM - 11:00PM, Thursday: 8:30AM - 11:00PM, Friday: 8:30AM - 11:00PM, Saturday: 8:30AM - 11:00PM, Sunday: 8:30AM - 11:00PM"
Nihonbashi Asada,4.0,Tokyo,35.688314,139.7735186,"Monday: 6:30 - 9:00AM, 11:30AM - 1:30PM, 5:30 - 9:00PM, Tuesday: 6:30 - 9:00AM, 11:30AM - 1:30PM, 5:30 - 9:00PM, Wednesday: 6:30 - 9:00AM, 11:30AM - 1:30PM, 5:30 - 9:00PM, Thursday: 6:30 - 9:00AM, 11:30AM - 1:30PM, 5:30 - 9:00PM, Friday: 6:30 - 9:00AM, 11:30AM - 1:30PM, 5:30 - 9:00PM, Saturday: 6:30 - 9:00AM, 12:00 - 1:30PM, Sunday: 6:30 - 9:00AM, 12:00 - 1:30PM"
bills Ginza,4.3,Tokyo,35.67324290000001,139.7667056,"Monday: 8:30AM - 11:00PM, Tuesday: 8:30AM - 11:00PM, Wednesday: 8:30AM - 11:00PM, Thursday: 8:30AM - 11:00PM, Friday: 8:30AM - 11:00PM, Saturday: 8:30AM - 11:00PM, Sunday: 8:30AM - 11:00PM"
Marugo,4.7,Tokyo,-6.382322499999999,107.2889193,"Monday: 8:00AM - 5:00PM, Tuesday: 8:00AM - 5:00PM, Wednesday: 8:00AM - 5:00PM, Thursday: 8:00AM - 5:00PM, Friday: 7:30AM - 5:00PM, Saturday: Closed, Sunday: Closed"
Hot Spoon Marunouchi,4.3,Tokyo,35.6846947,139.7649169,"Monday: 11:00AM - 11:00PM, Tuesday: 11:00AM - 11:00PM, Wednesday: 11:00AM - 11:00PM, Thursday: 11:00AM - 11:00PM, Friday: 11:00AM - 11:00PM, Saturday: Closed, Sunday: Closed"
isomarusuisan,4.0,Tokyo,34.6686295,135.5031988,"Monday: 5:00PM - 5:00AM, Tuesday: 5:00PM - 5:00AM, Wednesday: 5:00PM - 5:00AM, Thursday: 5:00PM - 5:00AM, Friday: 5:00PM - 5:00AM, Saturday: 5:00PM - 5:00AM, Sunday: 5:00PM - 5:00AM"
Sushizanmai Tsukiji Ekimae,4.9,Tokyo,35.6676995,139.7723854,"Monday: 11:00AM - 10:30PM, Tuesday: 11:00AM - 10:30PM, Wednesday: 11:00AM - 10:30PM, Thursday: 11:00AM - 10:30PM, Friday: 11:00AM - 10:30PM, Saturday: 11:00AM - 10:30PM, Sunday: 11:00AM - 10:30PM"
Robata Musashi Shinbashi Karasumori Guchi,4.3,Tokyo,35.66691470000001,139.7563814,"Monday: 4:30PM - 4:00AM, Tuesday: 4:30PM - 4:00AM, Wednesday: 4:30PM - 4:00AM, Thursday: 4:30PM - 4:00AM, Friday: 4:30PM - 4:00AM, Saturday: Closed, Sunday: Closed"
Saryō Tsujiri Daimaru Tōkyō,4.6,Tokyo,35.681421,139.7692347,"Monday: 10:00AM - 8:00PM, Tuesday: 10:00AM - 8:00PM, Wednesday: 10:00AM - 8:00PM, Thursday: 10:00AM - 8:00PM, Friday: 10:00AM - 8:00PM, Saturday: 10:00AM - 8:00PM, Sunday: 10:00AM - 8:00PM"
Densuke,4.8,Tokyo,35.013564,135.763199,"Monday: 5:30 - 10:00PM, Tuesday: 5:30 - 10:00PM, Wednesday: 5:30 - 10:00PM, Thursday: 5:30 - 10:00PM, Friday: 5:30 - 10:00PM, Saturday: 5:30 - 10:00PM, Sunday: Closed"
Katsu Ooedo Ueno 2 Gō,4.0,Tokyo,,,N/A
Vampire Uguisudani,4.0,Tokyo,35.6704655,139.7626722,"Monday: Closed, Tuesday: 5:00 - 11:00PM, Wednesday: 5:00 - 11:00PM, Thursday: 5:00 - 11:00PM, Friday: 5:00 - 11:00PM, Saturday: 5:00 - 11:00PM, Sunday: 5:00 - 11:00PM"
Denny’s Akihabara Chuoguchi,4.4,Tokyo,35.69728529999999,139.7737755,"Monday: 6:30AM - 11:00PM, Tuesday: 6:30AM - 11:00PM, Wednesday: 6:30AM - 11:00PM, Thursday: 6:30AM - 11:00PM, Friday: 6:30AM - 11:00PM, Saturday: 6:30AM - 11:00PM, Sunday: 6:30AM - 11:00PM"
JOMON ROPPONGI,4.5,Tokyo,35.66137479999999,139.7329948,"Monday: 5:00 - 11:30PM, Tuesday: 5:00 - 11:30PM, Wednesday: 5:00 - 11:30PM, Thursday: 5:00 - 11:30PM, Friday: 5:00 - 11:30PM, Saturday: 5:00 - 11:30PM, Sunday: 5:00 - 11:30PM"
Final Fantasy Eorzea Cafe,4.2,Tokyo,35.6977571,139.7703742,"Monday: 12:30 - 10:00PM, Tuesday: 12:30 - 10:00PM, Wednesday: 12:30 - 10:00PM, Thursday: 12:30 - 10:00PM, Friday: 12:30 - 10:00PM, Saturday: 10:00AM - 10:00PM, Sunday: 10:00AM - 10:00PM"
Zakuro restaurant,4.3,Tokyo,48.86926679999999,2.3342278,"Monday: Closed, Tuesday: 7:00 - 9:30PM, Wednesday: 12:00 - 2:00PM, 7:00 - 9:30PM, Thursday: 12:00 - 2:00PM, 7:00 - 9:30PM, Friday: 12:00 - 2:00PM, 7:00 - 9:30PM, Saturday: 12:00 - 2:00PM, 7:00 - 9:30PM, Sunday: Closed"
Kaisen Dokoro Sushitsune Atore Ueno,4.5,Tokyo,35.71251760000001,139.7765611,"Monday: 11:00AM - 11:00PM, Tuesday: 11:00AM - 11:00PM, Wednesday: 11:00AM - 11:00PM, Thursday: 11:00AM - 11:00PM, Friday: 11:00AM - 11:00PM, Saturday: 11:00AM - 11:00PM, Sunday: 11:00AM - 11:00PM"
Steakhouse Matsunami,4.8,Tokyo,35.7123047,139.7923467,"Monday: 11:30AM - 2:30PM, 5:00 - 11:00PM, Tuesday: 11:30AM - 2:30PM, 5:00 - 11:00PM, Wednesday: 11:30AM - 2:30PM, 5:00 - 11:00PM, Thursday: 11:30AM - 2:30PM, 5:00 - 11:00PM, Friday: 11:30AM - 2:30PM, 5:00 - 11:00PM, Saturday: 11:30AM - 11:00PM, Sunday: 11:30AM - 10:00PM"
Yakitori Bunraku,4.8,Tokyo,35.7104535,139.7749332,"Monday: 2:00 - 11:00PM, Tuesday: 2:00 - 11:00PM, Wednesday: 2:00 - 11:00PM, Thursday: 2:00 - 11:00PM, Friday: 2:00 - 11:00PM, Saturday: 12:00 - 10:00PM, Sunday: 12:00 - 10:00PM"
Kirby Cafe,4.2,Tokyo,51.8420008,1.2225379,
Tonkatsu Ginza Bairin Akihabara Station,5.0,Tokyo,35.6986427,139.7730386,
Moriichi Jinboucyou,4.5,Tokyo,,,N/A
Katsuya Akihabara,4.0,Tokyo,35.6985388,139.7707856,"Monday: 7:00AM - 11:00PM, Tuesday: 7:00AM - 11:00PM, Wednesday: 7:00AM - 11:00PM, Thursday: 7:00AM - 11:00PM, Friday: 7:00AM - 11:00PM, Saturday: 7:00AM - 11:00PM, Sunday: 7:00AM - 11:00PM"
MUCHO －MODERN MEXICANO－,4.1,Tokyo,35.6781367,139.7646834,"Monday: 11:00AM - 3:00PM, 5:00 - 11:00PM, Tuesday: 11:00AM - 3:00PM, 5:00 - 11:00PM, Wednesday: 11:00AM - 3:00PM, 5:00 - 11:00PM, Thursday: 11:00AM - 3:00PM, 5:00 - 11:00PM, Friday: 11:00AM - 3:00PM, 5:00 - 11:00PM, Saturday: 11:00AM - 11:00PM, Sunday: 11:00AM - 10:00PM"
Sushiya Ginzō Akihabara Honkan,4.5,Tokyo,35.69738339999999,139.7733757,"Monday: 11:30AM - 11:00PM, Tuesday: 11:30AM - 11:00PM, Wednesday: 11:30AM - 11:00PM, Thursday: 11:30AM - 11:00PM, Friday: 11:30AM - 11:00PM, Saturday: 11:30AM - 10:30PM, Sunday: 11:30AM - 10:00PM"
Koukaibo,5.0,Tokyo,35.6753009,139.7988027,"Monday: 11:00AM - 3:00PM, 5:30 - 7:00PM, Tuesday: 11:00AM - 3:00PM, 5:30 - 7:00PM, Wednesday: Closed, Thursday: 11:00AM - 3:00PM, 5:30 - 7:00PM, Friday: 11:00AM - 3:00PM, 5:30 - 7:00PM, Saturday: 11:00AM - 3:00PM, Sunday: Closed"
MENYA HIDAMALI,4.4,Tokyo,35.7285885,139.7643494,"Monday: Closed, Tuesday: 11:30AM - 5:00PM, Wednesday: 11:30AM - 5:00PM, Thursday: 11:30AM - 5:00PM, Friday: 11:30AM - 5:00PM, Saturday: 11:30AM - 2:00PM, 5:00 - 8:00PM, Sunday: 11:30AM - 2:00PM, 5:00 - 8:00PM"
Carp Tokyo,4.0,Tokyo,35.6937221,139.7703138,"Monday: Closed, Tuesday: 11:00AM - 1:30PM, 4:00 - 8:30PM, Wednesday: 11:00AM - 1:30PM, 4:00 - 8:30PM, Thursday: 11:00AM - 1:30PM, 4:00 - 8:30PM, Friday: 11:00AM - 1:30PM, 4:00 - 8:30PM, Saturday: 11:00AM - 1:30PM, 4:00 - 8:30PM, Sunday: Closed"
Yunrinbou,4.0,Tokyo,35.6955035,139.7727668,"Monday: 11:00AM - 10:00PM, Tuesday: 11:00AM - 10:00PM, Wednesday: 11:00AM - 10:00PM, Thursday: 11:00AM - 10:00PM, Friday: 11:00AM - 10:00PM, Saturday: 11:00AM - 9:30PM, Sunday: 11:00AM - 9:30PM"
511,4.6,Tokyo,,,N/A
Vampire Uguisudani,4.0,Tokyo,35.6704655,139.7626722,"Monday: Closed, Tuesday: 5:00 - 11:00PM, Wednesday: 5:00 - 11:00PM, Thursday: 5:00 - 11:00PM, Friday: 5:00 - 11:00PM, Saturday: 5:00 - 11:00PM, Sunday: 5:00 - 11:00PM"
Eggcellent,4.1,Tokyo,,,N/A
The Lobby Lounge,4.5,Tokyo,-33.9244744,18.4197152,"Monday: 8:00AM - 10:00PM, Tuesday: 8:00AM - 10:00PM, Wednesday: 8:00AM - 10:00PM, Thursday: 8:00AM - 10:00PM, Friday: 8:00AM - 10:00PM, Saturday: 8:00AM - 10:00PM, Sunday: 8:00AM - 10:00PM"
Niku Bistro & Craft Beer l’Empreinte,4.0,Tokyo,,,N/A
Bondi jinbocho,4.5,Tokyo,35.6957248,139.7559866,"Monday: 10:30AM - 7:00PM, Tuesday: 10:30AM - 7:00PM, Wednesday: 10:30AM - 7:00PM, Thursday: 10:30AM - 7:00PM, Friday: 10:30AM - 7:00PM, Saturday: 10:30AM - 7:00PM, Sunday: Closed"
Tim Ho Wan Hibiya,4.3,Tokyo,35.6735316,139.7605141,"Monday: 10:00AM - 9:00PM, Tuesday: 10:00AM - 9:00PM, Wednesday: 10:00AM - 9:00PM, Thursday: 10:00AM - 9:00PM, Friday: 10:00AM - 9:00PM, Saturday: 10:00AM - 9:00PM, Sunday: 10:00AM - 9:00PM"
Harajuku Gyōzarou,4.1,Tokyo,35.6699682,139.709008,
Mantensakaba Marunouchi Kitaguchi,4.0,Tokyo,35.683938,139.7668852,
JOJOEN Tokyo Dome City LaQua,5.0,Tokyo,35.7071196,139.7531492,"Monday: 11:30AM - 10:45PM, Tuesday: 11:30AM - 10:45PM, Wednesday: 11:30AM - 10:45PM, Thursday: 11:30AM - 10:45PM, Friday: 11:30AM - 10:45PM, Saturday: 11:00AM - 10:45PM, Sunday: 11:00AM - 10:45PM"
Isen Honten,4.7,Tokyo,35.70746990000001,139.772196,"Monday: 11:30AM - 8:00PM, Tuesday: 11:30AM - 8:00PM, Wednesday: Closed, Thursday: 11:30AM - 8:00PM, Friday: 11:30AM - 8:00PM, Saturday: 11:30AM - 8:00PM, Sunday: 11:30AM - 8:00PM"
eggslut Shinjuku Southern Terrace,4.5,Tokyo,35.68866149999999,139.6998971,"Monday: 8:00AM - 9:00PM, Tuesday: 8:00AM - 9:00PM, Wednesday: 8:00AM - 9:00PM, Thursday: 8:00AM - 9:00PM, Friday: 8:00AM - 9:00PM, Saturday: 8:00AM - 9:00PM, Sunday: 8:00AM - 9:00PM"
Ningyōchō Nikuzushi,5.0,Tokyo,35.6864524,139.7836476,"Monday: 11:45AM - 2:30PM, 5:00 - 9:30PM, Tuesday: 11:45AM - 2:30PM, 5:00 - 9:30PM, Wednesday: 11:45AM - 2:30PM, 5:00 - 9:30PM, Thursday: 11:45AM - 2:30PM, 5:00 - 9:30PM, Friday: 11:45AM - 2:30PM, 5:00 - 9:30PM, Saturday: 11:45AM - 2:30PM, 5:00 - 9:00PM, Sunday: Closed"
Niku Bistro & Craft Beer l’Empreinte,4.0,Tokyo,,,N/A
Bondi jinbocho,4.5,Tokyo,35.6957248,139.7559866,"Monday: 10:30AM - 7:00PM, Tuesday: 10:30AM - 7:00PM, Wednesday: 10:30AM - 7:00PM, Thursday: 10:30AM - 7:00PM, Friday: 10:30AM - 7:00PM, Saturday: 10:30AM - 7:00PM, Sunday: Closed"
Tim Ho Wan Hibiya,4.3,Tokyo,35.6735316,139.7605141,"Monday: 10:00AM - 9:00PM, Tuesday: 10:00AM - 9:00PM, Wednesday: 10:00AM - 9:00PM, Thursday: 10:00AM - 9:00PM, Friday: 10:00AM - 9:00PM, Saturday: 10:00AM - 9:00PM, Sunday: 10:00AM - 9:00PM"
Harajuku Gyōzarou,4.1,Tokyo,35.6699682,139.709008,
Mantensakaba Marunouchi Kitaguchi,4.0,Tokyo,35.683938,139.7668852,
JOJOEN Tokyo Dome City LaQua,5.0,Tokyo,35.7071196,139.7531492,"Monday: 11:30AM - 10:45PM, Tuesday: 11:30AM - 10:45PM, Wednesday: 11:30AM - 10:45PM, Thursday: 11:30AM - 10:45PM, Friday: 11:30AM - 10:45PM, Saturday: 11:00AM - 10:45PM, Sunday: 11:00AM - 10:45PM"
Isen Honten,4.7,Tokyo,35.70746990000001,139.772196,"Monday: 11:30AM - 8:00PM, Tuesday: 11:30AM - 8:00PM, Wednesday: Closed, Thursday: 11:30AM - 8:00PM, Friday: 11:30AM - 8:00PM, Saturday: 11:30AM - 8:00PM, Sunday: 11:30AM - 8:00PM"
eggslut Shinjuku Southern Terrace,4.5,Tokyo,35.68866149999999,139.6998971,"Monday: 8:00AM - 9:00PM, Tuesday: 8:00AM - 9:00PM, Wednesday: 8:00AM - 9:00PM, Thursday: 8:00AM - 9:00PM, Friday: 8:00AM - 9:00PM, Saturday: 8:00AM - 9:00PM, Sunday: 8:00AM - 9:00PM"
Ookamadomeshi Torafuku,5.0,Tokyo,,,N/A
Nihonbashi Ichino Ichino Ichi,5.0,Tokyo,35.683796,139.773679,"Monday: 5:00 - 10:30PM, Tuesday: 5:00 - 10:30PM, Wednesday: 5:00 - 10:30PM, Thursday: 5:00 - 10:30PM, Friday: 5:00 - 11:00PM, Saturday: 11:30AM - 3:00PM, 5:00 - 10:00PM, Sunday: Closed"
The Café by Aman,4.3,Tokyo,35.685614,139.7653405,"Monday: 11:00AM - 7:00PM, Tuesday: 11:00AM - 7:00PM, Wednesday: 11:00AM - 7:00PM, Thursday: 11:00AM - 7:00PM, Friday: 11:00AM - 7:00PM, Saturday: 11:00AM - 7:00PM, Sunday: 11:00AM - 7:00PM"
Aburaya Otemachi Builiding,4.5,Tokyo,35.6864722,139.7645972,"Monday: 11:00AM - 9:30PM, Tuesday: 11:00AM - 9:30PM, Wednesday: 11:00AM - 9:30PM, Thursday: 11:00AM - 9:30PM, Friday: 11:00AM - 9:30PM, Saturday: Closed, Sunday: Closed"
Yabaton Tokyo Ginzaten,4.5,Tokyo,35.6726004,139.7693413,"Monday: Closed, Tuesday: 11:00AM - 10:00PM, Wednesday: 11:00AM - 10:00PM, Thursday: 11:00AM - 10:00PM, Friday: 11:00AM - 10:00PM, Saturday: 11:00AM - 10:00PM, Sunday: 11:00AM - 10:00PM"
Toritsubaki Uguisudani Asagaotori,3.8,Tokyo,35.7214573,139.7780133,
Kagawa Ippuku,4.5,Tokyo,35.6919051,139.7671648,"Monday: 11:00AM - 8:00PM, Tuesday: 11:00AM - 8:00PM, Wednesday: 11:00AM - 8:00PM, Thursday: 11:00AM - 8:00PM, Friday: 11:00AM - 8:00PM, Saturday: 11:00AM - 8:00PM, Sunday: 11:00AM - 6:00PM"
Isomarusuisan Akihabara,4.3,Tokyo,35.6974326,139.772594,"Monday: 11:00AM - 3:00AM, Tuesday: 11:00AM - 3:00AM, Wednesday: 11:00AM - 3:00AM, Thursday: 11:00AM - 12:00AM, Friday: Open 24 hours, Saturday: Open 24 hours, Sunday: 11:00AM - 3:00AM"
Jinya Ebisu Honjin,4.6,Tokyo,,,N/A
USAGIYA CAFE,4.6,Tokyo,35.70693809999999,139.7716975,"Monday: 9:00AM - 6:00PM, Tuesday: 9:00AM - 6:00PM, Wednesday: Closed, Thursday: 9:00AM - 6:00PM, Friday: 9:00AM - 6:00PM, Saturday: 9:00AM - 6:00PM, Sunday: 9:00AM - 6:00PM"
Cat Cafe Calaugh,4.9,Tokyo,35.7104071,139.7973026,"Monday: Closed, Tuesday: 11:00AM - 8:00PM, Wednesday: 11:00AM - 8:00PM, Thursday: 11:00AM - 8:00PM, Friday: 11:00AM - 8:00PM, Saturday: 11:00AM - 8:00PM, Sunday: 11:00AM - 6:00PM"
IPPUDO Ginza,4.6,Tokyo,35.670693,139.7674279,"Monday: 11:00AM - 10:00PM, Tuesday: 11:00AM - 10:00PM, Wednesday: 11:00AM - 10:00PM, Thursday: 11:00AM - 10:00PM, Friday: 11:00AM - 10:00PM, Saturday: 11:00AM - 10:00PM, Sunday: 11:00AM - 10:00PM"
Horumon Dedesuke,4.8,Tokyo,35.6728862,139.7652701,"Monday: 11:30AM - 3:00PM, 5:00 - 10:00PM, Tuesday: 11:30AM - 3:00PM, 5:00 - 10:00PM, Wednesday: 11:30AM - 3:00PM, 5:00 - 10:00PM, Thursday: 11:30AM - 3:00PM, 5:00 - 10:00PM, Friday: 11:30AM - 3:00PM, 5:00 - 10:00PM, Saturday: 11:30AM - 3:00PM, 4:00 - 10:00PM, Sunday: 11:30AM - 3:00PM, 4:00 - 10:00PM"
Sushi Kanesaka Palace Hotel,4.5,Tokyo,35.6846,139.761,"Monday: 11:30AM - 2:00PM, 5:00 - 10:00PM, Tuesday: 11:30AM - 2:00PM, 5:00 - 10:00PM, Wednesday: 11:30AM - 2:00PM, 5:00 - 10:00PM, Thursday: 11:30AM - 2:00PM, 5:00 - 10:00PM, Friday: 11:30AM - 2:00PM, 5:00 - 10:00PM, Saturday: 11:30AM - 10:00PM, Sunday: 11:30AM - 2:00PM, 5:00 - 10:00PM"
Okiya Takumi Coredo Muromachi,4.5,Tokyo,35.68609060000001,139.7743007,"Monday: 11:00AM - 8:00PM, Tuesday: 11:00AM - 8:00PM, Wednesday: 11:00AM - 8:00PM, Thursday: 11:00AM - 8:00PM, Friday: 11:00AM - 8:00PM, Saturday: 10:00AM - 8:00PM, Sunday: 10:00AM - 8:00PM"
Umiya Tokyo Ekimae Honten,5.0,Tokyo,,,N/A
"Ochanomizu, Taisho-ken",4.5,Tokyo,35.697133,139.7544992,"Monday: 11:00AM - 9:00PM, Tuesday: 11:00AM - 9:00PM, Wednesday: 11:00AM - 9:00PM, Thursday: 11:00AM - 9:00PM, Friday: 11:00AM - 9:00PM, Saturday: 11:00AM - 9:00PM, Sunday: Closed"
Hakushu,4.8,Tokyo,35.6562855,139.7009933,"Monday: Closed, Tuesday: 5:30 - 9:00PM, Wednesday: 5:30 - 9:00PM, Thursday: 5:30 - 9:00PM, Friday: 5:30 - 9:00PM, Saturday: 5:30 - 9:00PM, Sunday: 5:30 - 9:00PM"
SUKEMASA COFFEE,4.8,Tokyo,35.71524169999999,139.7953934,"Monday: 11:00AM - 6:00PM, Tuesday: Closed, Wednesday: 11:00AM - 6:00PM, Thursday: 11:00AM - 6:00PM, Friday: 11:00AM - 6:00PM, Saturday: 11:00AM - 6:00PM, Sunday: 11:00AM - 6:00PM"
Yatai Ramen Yukitora Suidōbashi Higashiguchi,4.5,Tokyo,35.7019774,139.7549728,"Monday: Closed, Tuesday: Closed, Wednesday: Closed, Thursday: Closed, Friday: Closed, Saturday: 9:30PM - 1:00AM, Sunday: Closed"
Kamadoka Akihabara,4.0,Tokyo,35.6987603,139.7722767,"Monday: 11:00AM - 11:00PM, Tuesday: 11:00AM - 11:00PM, Wednesday: 11:00AM - 11:00PM, Thursday: 11:00AM - 11:00PM, Friday: 11:00AM - 11:00PM, Saturday: 11:00AM - 11:00PM, Sunday: 11:00AM - 11:00PM"
Umiya Tokyo Ekimae Honten,5.0,Tokyo,,,N/A
"Ochanomizu, Taisho-ken",4.5,Tokyo,35.697133,139.7544992,"Monday: 11:00AM - 9:00PM, Tuesday: 11:00AM - 9:00PM, Wednesday: 11:00AM - 9:00PM, Thursday: 11:00AM - 9:00PM, Friday: 11:00AM - 9:00PM, Saturday: 11:00AM - 9:00PM, Sunday: Closed"
Hakushu,4.8,Tokyo,35.6562855,139.7009933,"Monday: Closed, Tuesday: 5:30 - 9:00PM, Wednesday: 5:30 - 9:00PM, Thursday: 5:30 - 9:00PM, Friday: 5:30 - 9:00PM, Saturday: 5:30 - 9:00PM, Sunday: 5:30 - 9:00PM"
SUKEMASA COFFEE,4.8,Tokyo,35.71524169999999,139.7953934,"Monday: 11:00AM - 6:00PM, Tuesday: Closed, Wednesday: 11:00AM - 6:00PM, Thursday: 11:00AM - 6:00PM, Friday: 11:00AM - 6:00PM, Saturday: 11:00AM - 6:00PM, Sunday: 11:00AM - 6:00PM"
Nakameno Teppen Marunouchi,4.5,Tokyo,35.68444300000001,139.7645512,"Monday: 11:00AM - 2:30PM, 5:00 - 11:30PM, Tuesday: 11:00AM - 2:30PM, 5:00 - 11:30PM, Wednesday: 11:00AM - 2:30PM, 5:00 - 11:30PM, Thursday: 11:00AM - 2:30PM, 5:00 - 11:30PM, Friday: 11:00AM - 2:30PM, 5:00 - 11:30PM, Saturday: 5:00 - 11:00PM, Sunday: 5:00 - 10:00PM"
Yatai Ramen Yukitora Suidōbashi Higashiguchi,4.5,Tokyo,35.7019774,139.7549728,"Monday: Closed, Tuesday: Closed, Wednesday: Closed, Thursday: Closed, Friday: Closed, Saturday: 9:30PM - 1:00AM, Sunday: Closed"
Kamadoka Akihabara,4.0,Tokyo,35.6987603,139.7722767,"Monday: 11:00AM - 11:00PM, Tuesday: 11:00AM - 11:00PM, Wednesday: 11:00AM - 11:00PM, Thursday: 11:00AM - 11:00PM, Friday: 11:00AM - 11:00PM, Saturday: 11:00AM - 11:00PM, Sunday: 11:00AM - 11:00PM"
Abura Soba Ginza Gumi,4.9,Tokyo,35.6693617,139.7648186,"Monday: 11:00AM - 4:00AM, Tuesday: 11:00AM - 4:00AM, Wednesday: 11:00AM - 4:00AM, Thursday: 11:00AM - 4:00AM, Friday: 11:00AM - 4:00AM, Saturday: 11:00AM - 4:00AM, Sunday: 11:00AM - 9:00PM"
Sutadonya Shibuya,4.5,Tokyo,35.6588036,139.6990654,"Monday: 11:00AM - 11:00PM, Tuesday: 11:00AM - 11:00PM, Wednesday: 11:00AM - 11:00PM, Thursday: 11:00AM - 11:00PM, Friday: 11:00AM - 11:00PM, Saturday: 11:00AM - 11:00PM, Sunday: 11:00AM - 11:00PM"
Kushihacchin Yasukuni,4.0,Tokyo,35.69413600000001,139.743849,"Monday: 6:00AM - 6:00PM, Tuesday: 6:00AM - 6:00PM, Wednesday: 6:00AM - 6:00PM, Thursday: 6:00AM - 6:00PM, Friday: 6:00AM - 6:00PM, Saturday: 6:00AM - 6:00PM, Sunday: 6:00AM - 6:00PM"
Toridori Marunouchi,4.3,Tokyo,35.684401,139.765813,
Motenashi Kuroki,4.9,Tokyo,35.6988424,139.780155,
Nihonbashi Tamai Muromachi,4.5,Tokyo,35.68922209999999,139.7719983,"Monday: 11:00AM - 2:00PM, 5:00 - 10:00PM, Tuesday: 11:00AM - 2:00PM, 5:00 - 10:00PM, Wednesday: 11:00AM - 2:00PM, 5:00 - 10:00PM, Thursday: 11:00AM - 2:00PM, 5:00 - 10:00PM, Friday: 11:00AM - 2:00PM, 5:00 - 10:00PM, Saturday: 11:00AM - 3:00PM, 4:30 - 8:30PM, Sunday: 11:00AM - 3:00PM, 4:30 - 8:30PM"
Unatoto Asakusa,4.4,Tokyo,35.712015,139.797945,"Monday: 11:00AM - 9:30PM, Tuesday: 11:00AM - 9:30PM, Wednesday: 11:00AM - 9:30PM, Thursday: 11:00AM - 9:30PM, Friday: 11:00AM - 9:30PM, Saturday: 11:00AM - 9:30PM, Sunday: 11:00AM - 9:30PM"
1899 Ochanomizu,4.3,Tokyo,35.6964975,139.7655335,"Monday: 11:00AM - 10:00PM, Tuesday: 11:00AM - 10:00PM, Wednesday: 11:00AM - 10:00PM, Thursday: 11:00AM - 10:00PM, Friday: 11:00AM - 10:00PM, Saturday: 11:00AM - 10:00PM, Sunday: 11:00AM - 5:30PM"
Yamano,4.8,Tokyo,3.5806815,98.6860543,"Monday: 9:00AM - 5:00PM, Tuesday: 9:00AM - 5:00PM, Wednesday: 9:00AM - 5:00PM, Thursday: 9:00AM - 5:00PM, Friday: 9:00AM - 5:00PM, Saturday: 9:00AM - 5:00PM, Sunday: 9:00AM - 4:00PM"
Fushue,4.3,Tokyo,41.87970989999999,123.95722,
nobu,4.7,Tokyo,-33.908698,18.4161886,"Monday: 6:00 - 11:00PM, Tuesday: 6:00 - 11:00PM, Wednesday: 6:00 - 11:00PM, Thursday: 6:00 - 11:00PM, Friday: 6:00 - 11:00PM, Saturday: 6:00 - 11:00PM, Sunday: 6:00 - 11:00PM"
Uogashi Nihon Ichi Shinjuku Nishiguchi,4.7,Tokyo,35.6899828,139.6972998,"Monday: 11:00AM - 11:00PM, Tuesday: 11:00AM - 11:00PM, Wednesday: 11:00AM - 11:00PM, Thursday: 11:00AM - 11:00PM, Friday: 11:00AM - 11:00PM, Saturday: 11:00AM - 10:00PM, Sunday: 11:00AM - 9:30PM"
NINJA AKASAKA,4.2,Tokyo,35.6779791,139.7371682,
Fuunji,4.6,Tokyo,35.6868343,139.6966393,"Monday: 11:00AM - 3:00PM, 5:00 - 9:00PM, Tuesday: 11:00AM - 3:00PM, 5:00 - 9:00PM, Wednesday: 11:00AM - 3:00PM, 5:00 - 9:00PM, Thursday: 11:00AM - 3:00PM, 5:00 - 9:00PM, Friday: 11:00AM - 3:00PM, 5:00 - 9:00PM, Saturday: 11:00AM - 3:00PM, 5:00 - 9:00PM, Sunday: 11:00AM - 3:00PM, 5:00 - 9:00PM"
Unagi Kappō Izuei Honten,3.8,Tokyo,35.709671,139.7726906,"Monday: 11:00AM - 9:00PM, Tuesday: 11:00AM - 9:00PM, Wednesday: 11:00AM - 9:00PM, Thursday: 11:00AM - 9:00PM, Friday: 11:00AM - 9:00PM, Saturday: 11:00AM - 9:00PM, Sunday: 11:00AM - 9:00PM"
Oshi Olive,4.3,Tokyo,35.7223768,139.771043,"Monday: 11:00AM - 3:30PM, Tuesday: 11:00AM - 6:30PM, Wednesday: 11:00AM - 6:30PM, Thursday: 11:00AM - 6:30PM, Friday: 11:00AM - 6:30PM, Saturday: 11:00AM - 6:30PM, Sunday: 11:00AM - 6:30PM"
Gyōza Seizō Hanbaiten Ueno Ichi Gorō,4.5,Tokyo,35.7101102,139.7758242,"Monday: 11:00AM - 3:00AM, Tuesday: 11:00AM - 3:00AM, Wednesday: 11:00AM - 3:00AM, Thursday: 11:00AM - 3:00AM, Friday: 11:00AM - 5:00AM, Saturday: 11:00AM - 5:00AM, Sunday: 11:00AM - 3:00AM"
Noroshi,4.5,Tokyo,35.92400399999999,139.622154,"Monday: 11:00AM - 8:30PM, Tuesday: 11:00AM - 8:30PM, Wednesday: 11:00AM - 8:30PM, Thursday: 11:00AM - 8:30PM, Friday: 11:00AM - 8:30PM, Saturday: 11:00AM - 8:30PM, Sunday: 11:00AM - 4:00PM"
Ningyocho Imahan,4.6,Tokyo,35.6857703,139.7836715,"Monday: 11:00AM - 3:00PM, 5:00 - 10:00PM, Tuesday: 11:00AM - 3:00PM, 5:00 - 10:00PM, Wednesday: 11:00AM - 3:00PM, 5:00 - 10:00PM, Thursday: 11:00AM - 3:00PM, 5:00 - 10:00PM, Friday: 11:00AM - 3:00PM, 5:00 - 10:00PM, Saturday: 11:00AM - 10:00PM, Sunday: 11:00AM - 10:00PM"
Tonki Meguro,4.5,Tokyo,35.6336071,139.7142945,"Monday: 4:00 - 9:00PM, Tuesday: Closed, Wednesday: 4:00 - 9:00PM, Thursday: 4:00 - 9:00PM, Friday: 4:00 - 9:00PM, Saturday: 4:00 - 9:00PM, Sunday: 4:00 - 9:00PM"
Tsukiji Sushi Nagomi GRANSTA Marunouchi,4.3,Tokyo,35.6826939,139.7665814,"Monday: 7:00AM - 10:00PM, Tuesday: 7:00AM - 10:00PM, Wednesday: 7:00AM - 10:00PM, Thursday: 7:00AM - 10:00PM, Friday: 7:00AM - 10:00PM, Saturday: 7:00AM - 10:00PM, Sunday: 8:00AM - 9:00PM"
Shinjuku Kappō Nakajima,4.4,Tokyo,35.69020239999999,139.7040013,"Monday: 11:30AM - 1:30PM, 5:30 - 9:00PM, Tuesday: 11:30AM - 1:30PM, 5:30 - 9:00PM, Wednesday: 11:30AM - 1:30PM, 5:30 - 9:00PM, Thursday: 11:30AM - 1:30PM, 5:30 - 9:00PM, Friday: 11:30AM - 1:30PM, 5:30 - 9:00PM, Saturday: 11:30AM - 1:30PM, 5:30 - 9:00PM, Sunday: Closed"
Okachimachi Tenpura Sakedokoro Tenmasa,5.0,Tokyo,,,N/A
Fushue,4.3,Tokyo,41.87970989999999,123.95722,
nobu,4.7,Tokyo,-33.908698,18.4161886,"Monday: 6:00 - 11:00PM, Tuesday: 6:00 - 11:00PM, Wednesday: 6:00 - 11:00PM, Thursday: 6:00 - 11:00PM, Friday: 6:00 - 11:00PM, Saturday: 6:00 - 11:00PM, Sunday: 6:00 - 11:00PM"
Sushishin,5.0,Tokyo,47.3705617,8.5414088,"Monday: 6:00 - 10:30PM, Tuesday: 11:30AM - 2:30PM, 6:00 - 10:30PM, Wednesday: 6:00 - 10:30PM, Thursday: 6:00 - 10:30PM, Friday: 11:30AM - 2:30PM, 6:00 - 10:30PM, Saturday: 6:00 - 10:30PM, Sunday: Closed"
Uogashi Nihon Ichi Shinjuku Nishiguchi,4.7,Tokyo,35.6899828,139.6972998,"Monday: 11:00AM - 11:00PM, Tuesday: 11:00AM - 11:00PM, Wednesday: 11:00AM - 11:00PM, Thursday: 11:00AM - 11:00PM, Friday: 11:00AM - 11:00PM, Saturday: 11:00AM - 10:00PM, Sunday: 11:00AM - 9:30PM"
NINJA AKASAKA,4.2,Tokyo,35.6779791,139.7371682,
Kamachiku,5.0,Tokyo,35.7180829,139.7669646,"Monday: Closed, Tuesday: 11:30AM - 2:00PM, 5:30 - 8:30PM, Wednesday: 11:30AM - 2:00PM, 5:30 - 8:30PM, Thursday: 11:30AM - 2:00PM, 5:30 - 8:30PM, Friday: 11:30AM - 2:00PM, 5:30 - 8:30PM, Saturday: 11:30AM - 2:00PM, 5:30 - 8:30PM, Sunday: Closed"
Warawara Tsukiji Ekimae,5.0,Tokyo,35.66849199999999,139.7723149,"Monday: 11:00AM - 11:00PM, Tuesday: 11:00AM - 11:00PM, Wednesday: 11:00AM - 11:00PM, Thursday: 11:00AM - 11:00PM, Friday: 11:00AM - 3:00AM, Saturday: 5:00 - 11:00PM, Sunday: 5:00 - 11:00PM"
Komorosobakamakurabashi,5.0,Tokyo,,,N/A
Ishibashi,5.0,Tokyo,35.6613803,139.697515,"Monday: 12:00 - 8:00PM, Tuesday: 12:00 - 8:00PM, Wednesday: 12:00 - 8:00PM, Thursday: 12:00 - 8:00PM, Friday: 12:00 - 8:00PM, Saturday: 12:00 - 8:00PM, Sunday: 12:00 - 8:00PM"
Kitchen Calorie,4.4,Tokyo,-33.8749609,18.69896929999999,"Monday: 8:00AM - 5:00PM, Tuesday: 8:00AM - 5:00PM, Wednesday: 8:00AM - 5:00PM, Thursday: 8:00AM - 5:00PM, Friday: 8:00AM - 5:00PM, Saturday: Closed, Sunday: Closed"
Fushue,4.3,Tokyo,41.87970989999999,123.95722,
nobu,4.7,Tokyo,-33.908698,18.4161886,"Monday: 6:00 - 11:00PM, Tuesday: 6:00 - 11:00PM, Wednesday: 6:00 - 11:00PM, Thursday: 6:00 - 11:00PM, Friday: 6:00 - 11:00PM, Saturday: 6:00 - 11:00PM, Sunday: 6:00 - 11:00PM"
Sushishin,5.0,Tokyo,47.3705617,8.5414088,"Monday: 6:00 - 10:30PM, Tuesday: 11:30AM - 2:30PM, 6:00 - 10:30PM, Wednesday: 6:00 - 10:30PM, Thursday: 6:00 - 10:30PM, Friday: 11:30AM - 2:30PM, 6:00 - 10:30PM, Saturday: 6:00 - 10:30PM, Sunday: Closed"
Uogashi Nihon Ichi Shinjuku Nishiguchi,4.7,Tokyo,35.6899828,139.6972998,"Monday: 11:00AM - 11:00PM, Tuesday: 11:00AM - 11:00PM, Wednesday: 11:00AM - 11:00PM, Thursday: 11:00AM - 11:00PM, Friday: 11:00AM - 11:00PM, Saturday: 11:00AM - 10:00PM, Sunday: 11:00AM - 9:30PM"
NINJA AKASAKA,4.2,Tokyo,35.6779791,139.7371682,
Kamachiku,5.0,Tokyo,35.7180829,139.7669646,"Monday: Closed, Tuesday: 11:30AM - 2:00PM, 5:30 - 8:30PM, Wednesday: 11:30AM - 2:00PM, 5:30 - 8:30PM, Thursday: 11:30AM - 2:00PM, 5:30 - 8:30PM, Friday: 11:30AM - 2:00PM, 5:30 - 8:30PM, Saturday: 11:30AM - 2:00PM, 5:30 - 8:30PM, Sunday: Closed"
Warawara Tsukiji Ekimae,5.0,Tokyo,35.66849199999999,139.7723149,"Monday: 11:00AM - 11:00PM, Tuesday: 11:00AM - 11:00PM, Wednesday: 11:00AM - 11:00PM, Thursday: 11:00AM - 11:00PM, Friday: 11:00AM - 3:00AM, Saturday: 5:00 - 11:00PM, Sunday: 5:00 - 11:00PM"
Komorosobakamakurabashi,5.0,Tokyo,,,N/A
Ishibashi,5.0,Tokyo,35.6613803,139.697515,"Monday: 12:00 - 8:00PM, Tuesday: 12:00 - 8:00PM, Wednesday: 12:00 - 8:00PM, Thursday: 12:00 - 8:00PM, Friday: 12:00 - 8:00PM, Saturday: 12:00 - 8:00PM, Sunday: 12:00 - 8:00PM"
Kitchen Calorie,4.4,Tokyo,-33.8749609,18.69896929999999,"Monday: 8:00AM - 5:00PM, Tuesday: 8:00AM - 5:00PM, Wednesday: 8:00AM - 5:00PM, Thursday: 8:00AM - 5:00PM, Friday: 8:00AM - 5:00PM, Saturday: Closed, Sunday: Closed"
YANSANDO Ueno Honten,4.0,Tokyo,35.7087367,139.7755034,"Monday: 11:30AM - 11:00PM, Tuesday: 11:30AM - 11:00PM, Wednesday: 11:30AM - 11:00PM, Thursday: 11:30AM - 11:00PM, Friday: 11:30AM - 11:00PM, Saturday: 11:30AM - 11:00PM, Sunday: 11:30AM - 11:00PM"
Hanaya,4.8,Tokyo,3.1479384,101.7121201,"Monday: Closed, Tuesday: 11:30AM - 2:59PM, 6:00 - 10:00PM, Wednesday: 11:30AM - 2:59PM, 6:00 - 10:00PM, Thursday: 11:30AM - 2:59PM, 6:00 - 10:00PM, Friday: 11:30AM - 2:59PM, 6:00 - 10:00PM, Saturday: 11:30AM - 2:59PM, 6:00 - 10:00PM, Sunday: 11:30AM - 2:59PM, 6:00 - 10:00PM"
Sukiyabashi Jiro Roppongi Hills,4.7,Tokyo,35.6586978,139.7291446,"Monday: 11:30AM - 2:00PM, 5:30 - 9:00PM, Tuesday: 11:30AM - 2:00PM, 5:30 - 9:00PM, Wednesday: Closed, Thursday: 11:30AM - 2:00PM, 5:30 - 9:00PM, Friday: 11:30AM - 2:00PM, 5:30 - 9:00PM, Saturday: 11:30AM - 2:00PM, 5:30 - 9:00PM, Sunday: 11:30AM - 2:00PM, 5:30 - 9:00PM"
Toy Box,4.0,Tokyo,-34.01424699999999,18.504078,"Monday: Open 24 hours, Tuesday: Open 24 hours, Wednesday: Open 24 hours, Thursday: Open 24 hours, Friday: Open 24 hours, Saturday: Open 24 hours, Sunday: Open 24 hours"
Fukube,4.3,Tokyo,35.6825598,139.7715395,"Monday: 4:30 - 10:30PM, Tuesday: 4:30 - 10:30PM, Wednesday: 4:30 - 10:30PM, Thursday: 4:30 - 10:30PM, Friday: 4:30 - 10:30PM, Saturday: Closed, Sunday: Closed"
ENTERTAINMENT DINING BAR KUJIRA,4.9,Tokyo,35.6952395,139.7041693,"Monday: 9:00PM - 5:00AM, Tuesday: 9:00PM - 5:00AM, Wednesday: 9:00PM - 5:00AM, Thursday: 9:00PM - 5:00AM, Friday: 9:00PM - 5:00AM, Saturday: 9:00PM - 5:00AM, Sunday: Closed"
Kinfukugen,4.0,Tokyo,,,N/A
Tsukiji Sushikō Tsukijijōgaishijō,4.6,Tokyo,35.664878,139.7718131,"Monday: 10:00AM - 2:00PM, 5:00 - 9:30PM, Tuesday: 10:00AM - 2:00PM, 5:00 - 9:30PM, Wednesday: Closed, Thursday: 10:00AM - 2:00PM, 5:00 - 9:30PM, Friday: 10:00AM - 2:00PM, 5:00 - 9:30PM, Saturday: 10:00AM - 2:00PM, 5:00 - 9:30PM, Sunday: 10:00AM - 2:00PM, 5:00 - 9:30PM"
